name,year,state,city,lat,lng,cities,beers,cityIndex
10 Barrel Brewing (AB InBev),2008,Oregon,Bend,44.086724,-121.29298,397-3,6.8-3.61-349|5.7-3.44-164|6.9-3.63-134|7.0-3.49-134|6.5-3.57-92|5.0-3.66-84|5.5-3.44-78|9.3-3.73-53|4.2-3.73-50|10.4-3.48-44,397
ZwanzigZ,2012,Indiana,Columbus,39.208809,-85.918886,812-2|391-29|683-32|11-41|793-44,8.3-3.67-18|5.3-3.32-14|5.5-3.11-13|13.4-3.3-12|9.0-3.34-12|6.2-2.84-11|6.4-3.2-11,
14th Star Brewing Company,2012,Vermont,St. Albans,44.814587,-73.082913,869-24,8.4-3.68-103|5.5-3.23-82|5.4-3.3-38|--3.28-15,
16 Mile Brewing Company,2009,Delaware,Georgetown,38.67971,-75.379431,,6.1-2.96-80|6.1-2.95-73|5.9-2.74-68|6.1-3.11-55|6.1-3.37-45|4.1-2.65-34|6.5-3.24-15,
18th Street Brewery,2013,Indiana,Gary,41.599226,-87.268832,416-3|409-14|444-26|632-26|629-27|2-27|613-29|376-30|637-32|706-34|438-38|532-38|815-40|750-41|453-42|837-42|818-43|610-45|913-45|878-47|668-47|175-47|685-47|168-48,8.5-3.67-125|8.0-3.84-120|9.7-3.76-115|8.5-3.8-111|9.5-3.84-104|7.2-3.59-86|5.5-3.54-79|7.7-3.67-75|10.5-3.87-66|5.3-3.32-64,
2 Row Brewing,2015,Utah,Midvale,40.626885,-111.881905,767-3|340-3|249-4|601-6|583-7|896-8|820-8|190-11|123-14|672-16|855-17|331-23|232-29|479-32|374-43,7.0-3.6-20|9.0-3.45-19|5.7-3.34-14,
21st Amendment Brewery,2001,California,San Francisco,37.782318,-122.392446,13-1|434-7|272-7|230-8|44-9|521-10|261-11|351-14|608-14|285-15|512-19|448-23|210-23|464-24|675-25|845-26|834-26|160-27|516-27|96-27|705-27|867-28|402-28|222-29|515-30|449-30|169-35|264-35|588-37|488-38|219-38|254-40|662-41|600-41|907-42|315-46|408-46|369-48,7.0-3.62-1153|6.8-3.55-904|4.9-2.87-885|8.3-3.61-641|9.7-3.77-583|4.4-3.49-535|7.9-3.17-444|11.5-3.54-388|6.2-3.32-309|7.9-3.66-252,13
23rd Street Brewery,2005,Kansas,Lawrence,38.942803,-95.28338,337-7|540-22|192-24|201-27|734-30|131-33|167-37|36-38|322-41|226-48|688-49,7.25-3.2-30|6.1-2.89-22|5.2-2.72-19|5.4-2.73-18|9.25-3.43-17|5.69-3.15-14,337
2nd Shift Brewing,2011,Missouri,St. Louis,38.621869,-90.280405,57-5|702-13|506-19|860-20|781-20|666-22|387-26,5.4-3.62-87|7.6-3.69-78|9.3-3.65-54|5.0-3.41-43|11.5-3.75-37|4.5-3.42-37|7.0-3.7-36|5.7-3.55-36|8.5-3.61-33|11.5-3.89-30,57
2nd Story Brewing Company,2014,Pennsylvania,Philadelphia,39.948423,-75.143268,4-4|429-15|469-26|577-32|373-32|443-46|223-48,6.9-3.56-26|5.1-3.02-19|3.7-3.3-17,4
2SP Brewing Company,2015,Pennsylvania,Aston,39.862267,-75.414404,469-12|4-18|429-26|577-33|352-44|373-47|604-50,8.7-3.27-21|4.2-3.36-20|6.0-3.56-16|4.0-3.1-13|7.5-3.21-11,
3 Daughters Brewing Company,2013,Florida,St. Petersburg,27.768614,-82.662326,77-1|743-9|417-13|251-16|52-16|710-28|687-31,7.0-2.96-76|5.0-2.99-68|5.9-3.04-37|5.2-3.42-28|5.7-3.15-26|11-3.45-23|6.4-3.21-20|--3.19-18|10-3.06-18|5.2-3.19-17,77
3 Nations Brewing Company,2015,Texas,Dallas,32.930689,-96.898624,206-2|917-5|274-10|739-11|8-12|126-12|69-13|93-13|495-14|690-15|770-15|185-15|87-16|177-19|327-20|622-21|827-22|859-22|508-23|286-23|842-23|717-23|166-23|797-25|216-25|49-25|16-25|894-29|580-29|902-37,5.2-3.48-26|5.5-3.22-17|5.5-3.12-11,8
3 Sheeps Brewing Company,2012,Wisconsin,Sheboygan,43.758853,-87.722807,765-3|856-36|514-46|455-48,6.2-3.5-97|5.5-3.3-78|8.2-3.65-52|5.0-3.07-48|7.7-3.75-41|6.5-3.56-33|7.0-3.41-29|6.2-3.35-18|7.0-3.58-15|10-3.51-15,765
3 Stars Brewing Company,2011,Washington DC,Washington,38.967552,-77.01274,22-4|164-11|636-14|525-15|542-16|879-30|25-31|782-32|513-37,5.2-3.46-62|6.5-3.34-56|5.8-3.4-45|9.6-3.57-43|6.3-3.59-37|8.7-3.51-35|5.0-3.26-26|8.0-3.47-24|12.4-3.41-21|9.6-3.31-19,
4 Hands Brewing Company,2011,Missouri,St. Louis,38.615315,-90.197549,57-1|702-16|860-16|506-22|781-24|666-26|387-31,5.5-3.62-178|5.0-3.51-170|6.5-3.59-155|6.5-3.7-139|5.5-3.52-118|6.0-3.4-110|6.0-3.5-107|3.5-3.55-86|5.0-3.18-85|9.0-3.5-83,57
4 Noses Brewing Company,2014,Colorado,Broomfield,39.906528,-105.069316,599-2|244-5|204-6|172-11|278-12|54-16|747-16|21-17|343-18|831-22|267-25|240-28|769-31|471-32|691-39|307-39|159-48,8.7-3.52-20|7.1-3.51-17|5.3-3.2-15|5.2-3.22-12|9.8-3.61-11,599
450 North Brewing Company,2012,Indiana,Columbus,39.268148,-85.832189,812-6|683-31|391-35|11-39|793-41|377-48,5.0-3.16-20|9.0-3.63-18|6.9-3.13-18|6.5-3.03-15,
49th State Brewery,2011,Alaska,Healy,63.543571,-149.986676,,6.0-3.55-26|7.0-3.41-19|7.0-3.42-16|6.0-3.42-12,
5 Rabbit Cerveceria,2011,Illinois,Chicago,41.757723,-87.780302,632-3|376-6|444-6|637-6|706-9|613-10|2-12|815-12|750-12|629-13|837-14|409-15|453-16|913-17|685-19|175-19|532-19|438-21|610-21|878-22|818-22|668-22|113-24|489-26|416-26|436-27|880-27|168-27|915-27|248-30|874-31|701-32|347-40|911-45,6.4-3.05-155|4.3-3.32-135|5.3-2.93-81|6.2-3.23-65|7.2-3.17-62|5.5-3.25-50|8.2-3.73-45|6.3-3.38-42|8.8-3.45-38|9.0-3.45-38,2
5 Seasons Brewing Company,2001,Georgia,Atlanta,33.906376,-84.378787,294-1|728-3|783-4|39-7|686-7|922-8|607-10|317-10|388-11|559-15,5.5-3.26-80|8.5-3.6-77|10.2-3.58-74|8.0-3.5-66|8.0-3.59-60|4.5-3.2-58|7.0-3.75-47|--3.29-41|--3.51-38|--3.36-32,39
5 Seasons North,2006,Georgia,Alpharetta,34.066281,-84.258559,388-2|559-4|317-6|922-7|783-9|294-12|728-16|686-19|39-20|607-20,11.4-3.92-42|4.8-3.28-41|7.3-3.77-38|--3.06-28|4.8-3.53-26|--3.28-25|9.14-3.56-21|10.4-3.68-18|6.5-3.48-17|4.8-3.35-17,559
5 Seasons Westside,2009,Georgia,Atlanta,33.779136,-84.411164,39-6|728-7|686-8|294-10|783-12|607-12|922-16|317-19|388-20|559-24,--3.31-16|12-3.42-14|9.0-3.35-13|--3.08-12|--3.26-12|--3.3-11|9.0-3.41-11|--3.41-11|--3.54-11|--3.44-11,39
5 Stones Artisan Brewery,2013,Texas,Cibolo,29.56223,-98.241578,550-14|6-18|678-32,6.43-3.45-23|7.7-3.41-23|5.8-3.37-19|8.57-3.22-18|7.8-3.48-15|6.83-3.21-15,
512 Brewing Company,2008,Texas,Austin,30.223827,-97.769686,10-7|682-18|574-20|250-21|678-22|665-33|550-41,6.8-3.67-230|8.2-3.76-151|6.5-3.59-148|5.5-3.31-66|9.0-3.71-52|9.5-3.39-47|--3.49-43|7.6-3.32-42|7.0-3.46-40|8.0-3.36-36,10
603 Brewery,2012,New Hampshire,Londonderry,42.91987,-71.362968,247-7|357-13|772-16|563-17|425-18|256-18|868-23|865-31|912-33|707-33|631-33|890-34|903-36|584-36|561-37|332-38|857-39|263-39|681-40|413-40|350-40|23-42,6.6-3.1-24|5.4-2.98-22|6.5-3.03-18|7.1-3.24-15|--3.11-12|8.0-3.67-11,
612 Brew,2013,Minnesota,Minneapolis,44.998564,-93.247247,45-1|65-8|788-9|755-9|452-10|418-11|586-12|528-12|719-13|530-13|361-13|562-13|556-14|527-15|738-17|571-19|615-25,6.6-3.16-32|5.1-2.86-29|5.4-2.93-19|5.6-2.72-14|4.1-3.03-13,45
7 Seas Brewing,2009,Washington,Gig Harbor,47.310245,-122.584367,106-8|323-13|606-13|746-14|446-15|212-19|304-20|823-22|775-26|189-27|372-31|667-33|626-33|741-34|901-36|20-38,8.0-3.34-77|5.85-3.31-46|5.4-3.22-27|4.8-3.41-15|6.8-3.43-15|6.2-3.02-13|5.2-3.2-11,
8th Wonder Brewery,2013,Texas,Houston,29.748769,-95.355933,3-5|158-8|291-14|378-17|484-18|440-22|336-25|805-37|554-39|764-46,--3.61-32|6.2-3.33-27|4.7-3.15-24|5.1-2.57-18|5.7-3.06-16|4.9-3.19-11,3
903 Brewers,2013,Texas,Sherman,33.617947,-96.607063,166-33|185-36|327-37|69-39|286-41|216-41|827-42|274-46|87-47|206-48|622-49,10.3-3.71-43|6.3-2.67-36|6.5-3.18-32|8.0-3.42-26|7.9-3.29-24|6.9-2.85-15,
A1A Ale Works,2000,Florida,St. Augustine,29.892112,-81.3114,414-29|12-41,5.42-2.99-47|5.42-3.09-39|5.57-3.26-37|5.11-3.14-31|3.61-2.58-23,
Aardwolf,2013,Florida,Jacksonville,30.310903,-81.654562,12-7,9.1-3.94-39|5.7-3.53-27|5.9-3.38-25|5.5-3.51-21|4.6-3.47-19|7.1-3.47-19|9.1-3.91-15|9.0-3.44-15|6.0-3.34-14|7.0-3.38-14,12
Abita Brewing Company,1986,Louisiana,Covington,30.482767,-90.055931,511-36|50-36,5.6-3.21-1565|4.75-2.59-1335|4.5-2.69-911|6.5-3.17-839|8.0-2.95-674|5.0-2.91-584|5.0-2.88-571|6.13-2.86-567|4.2-2.83-497|6.5-2.91-425,
Able Seedhouse + Brewery,2015,Minnesota,Minneapolis,44.998945,-93.251105,45-1|65-9|788-9|755-9|452-10|418-11|586-12|528-12|719-13|530-13|562-13|361-13|556-14|527-15|738-17|571-19|615-25,6.0-3.38-20|4.6-2.93-13|3.8-3.22-12|4.2-3.07-11,45
Acoustic Ales Brewing Experiment,2013,California,San Diego,32.743117,-117.1861,7-2|612-6|594-8|647-13|281-18|754-20|165-26|74-27|569-27|136-27|243-29|345-30|305-32,8.0-3.51-33|6.0-3.42-29|9.5-3.49-22|10-3.54-19|5.0-3.5-18|6.5-3.5-16|6.66-3.3-16|12.5-3.58-15|6.25-3.22-14|9.5-3.49-12,7
Adelbert’s Brewery,2012,Texas,Austin,30.382594,-97.72103,10-5|682-8|250-9|574-10|665-22|678-33,5.8-3.32-91|8.5-3.38-88|6.9-3.27-87|7.2-3.21-59|7.8-3.25-58|10.9-3.34-51|5.6-2.81-47|6.2-2.81-44|6.4-3.37-32|7.0-3.38-22,10
Adirondack Pub and Brewery,2003,New York,Lake George,43.429505,-73.711884,524-45,5.2-2.88-66|5.3-3.17-63|5.6-3.34-33|7.0-3.4-30|6.8-3.34-25|10-3.3-21|4.3-2.96-20,
Adroit Theory Brewing Company,2014,Virginia,Purcellville,39.143801,-77.720064,782-9|542-27|525-29|513-29|879-30|905-31|22-41|164-42,7.0-3.66-25|9.1-3.6-25|9.0-3.04-21|9.99-3.57-20|9.99-3.45-18|9.0-3.49-18|8.3-3.52-15|10.1-3.72-15|10.7-3.55-13|7.8-3.37-12,
Aeronaut Brewing Company,2014,Massachusetts,Somerville,42.381564,-71.105135,413-0|263-1|857-3|584-4|23-4|350-5|681-5|561-7|332-10|319-11|707-13|656-14|903-18|631-19|316-21|256-21|865-22|425-23|772-25|563-28|357-31|838-32|648-33|889-35|890-35|472-38|912-39|128-40|792-41|133-42|404-44|348-45|247-46,6.3-3.57-27|4.7-3.15-23|4.8-3.06-15|4.6-3.35-15|4.0-3.05-13|5.0-3.12-12,413
Aftershock Brewing Company,2012,California,Temecula,33.499007,-117.15364,383-11|262-12|394-16|627-16|305-22|465-22|345-23|243-26|536-27|111-27|165-28|909-32|407-33|740-34|485-35|754-36|58-37|510-37|355-37|181-37|116-37|538-37|308-37|74-38|136-38|569-38|84-39|697-40|299-40|689-41|419-42|401-42|99-43|803-43|659-43|674-44|56-44|283-44|692-45|238-45|647-46|612-46|757-48|639-48|703-48|433-49|134-49,9.9-3.52-33|5.5-3.21-15|5.7-3.23-14|8.0-3.49-13,265
Aiken Brewing Company,2003,South Carolina,Aiken,33.561433,-81.722224,118-16|191-50,5.2-3.1-31|6.2-3.2-26|7.5-3.13-16|6.2-3.2-14|6.2-3.26-14|9.0-3.24-14|5.4-3.18-11,
Airways Brewing Company,2010,Washington,Kent,47.426885,-122.252948,304-3|212-3|746-8|446-8|323-9|189-13|106-15|741-17|372-17|626-18|20-21|667-23|606-24|901-27|823-38|268-39|775-42|551-43,7.8-3.45-54|5.0-3.24-26|9.9-3.55-18|6.5-3.47-17|5.3-3.29-16|5.0-3.44-14|9.9-3.37-13|5.5-3.36-13|8.5-3.39-12,212
Alameda Brewing Co.,2001,Oregon,Portland,45.548433,-122.614233,28-5|253-9|318-10|144-10|733-13|302-19|151-46,6.8-3.6-327|8.2-3.58-253|5.3-3.2-149|7.2-3.32-96|7.2-3.37-73|7.9-3.55-71|6.4-3.27-64|5.1-3.47-38|8.0-3.64-29|5.5-3.21-27,28
Alaskan Brewing Company,1986,Alaska,Juneau,58.35688,-134.492201,,6.5-3.88-1760|5.3-3.32-1206|6.4-3.25-624|5.3-3.08-582|10.7-3.82-520|6.2-3.44-450|5.3-3.04-390|5.3-3.44-313|8.5-3.55-304|9.0-3.74-271,
Ale Asylum,2006,Wisconsin,Madison,43.116196,-89.353318,82-5|544-31,5.7-3.55-398|6.7-3.61-266|7.4-3.77-218|5.5-3.36-187|5.2-3.47-150|8.25-3.68-129|7.4-3.62-125|7.0-3.75-118|6.0-3.4-113|10-3.45-106,82
Ale Industries,2009,California,Oakland,37.793913,-122.246954,44-1|434-2|230-5|351-7|13-9|512-11|272-13|261-13|448-15|521-15|285-16|210-16|845-18|464-19|608-19|705-19|160-19|96-21|834-22|515-23|449-23|516-25|222-27|264-28|675-28|867-29|402-29|169-32|488-32|662-33|219-35|588-35|254-36|907-39|369-41|315-41|370-45|408-45|600-45,5.75-3.51-77|4.4-3.21-70|4.5-3.27-48|6.0-3.56-43|4.75-3.19-41|7.75-3.5-23|12.25-3.54-17|4.4-3.19-12|10-3.29-11,44
AleSmith Brewing Company,1995,California,San Diego,32.88817,-117.149643,612-6|647-10|754-10|7-11|165-15|594-15|281-17|345-20|74-20|136-20|569-20|243-20|305-22|536-45|262-47,12-4.29-2885|7.25-4.08-2337|11-4.03-1489|10-4.05-1441|8.5-4.06-1424|8.5-4.01-1398|10-3.85-1175|10-3.66-1113|5.25-3.66-1059|5.5-3.58-958,7
AleWerks Brewing Company,2006,Virginia,Williamsburg,37.321,-76.733337,129-23|186-26|366-32|309-41|80-41|98-44|38-47|90-49,9.0-3.86-252|8.0-3.94-249|6.3-3.42-208|5.4-3.64-205|11-3.6-196|7.5-3.35-180|8.3-4.02-172|8.5-3.75-139|7.3-3.69-136|5.3-3.19-128,
Allagash Brewing Company,1995,Maine,Portland,43.703088,-70.317847,518-4,5.0-3.55-1675|9.0-3.87-1399|11-3.79-1300|7.0-3.55-1089|7.5-3.7-1013|10-3.81-817|9.5-3.87-763|7.2-3.74-686|10.4-3.81-571|7.4-3.74-446,518
Alltech Lexington Brewing And Distilling,1999,Kentucky,Lexington,38.049979,-84.508828,60-3,8.2-3.16-938|8.0-3.33-374|6.0-2.79-298|6.5-3.07-153|10-3.31-148|4.34-2.31-143|10-3.04-85|8.0-2.97-75|10-3.14-59|10-3.2-58,
Alpha Brewing Company,2013,Missouri,St. Louis,38.632528,-90.199615,57-0|702-14|860-17|506-21|781-24|666-26|387-30,7.0-3.26-14|5.0-3.02-12|5.0-3.3-12|5.5-2.89-12|7.0-3.33-11|5.0-2.89-11,57
Alpine Beer Company (CA),2002,California,Alpine,32.834679,-116.762683,281-8|647-13|136-13|74-13|569-13|754-19|594-22|7-25|165-26|612-26|345-33|305-38|243-39,8.0-3.96-993|7.0-3.92-906|7.0-4.01-729|5.25-3.81-584|11-4.09-442|6.0-3.54-316|6.5-3.2-248|5.8-3.58-228|5.5-3.36-211|15-3.91-206,
Alpine Brewing Company (WA),2000,Washington,Oroville,48.383005,-119.748233,,5.2-3.09-38|--3.22-27|--3.16-20|--3.16-16|6.4-3.18-11,
Altamont Beer Works,2012,California,Livermore,37.678522,-121.721353,449-8|705-10|160-11|369-13|845-15|448-15|370-16|96-16|662-17|464-17|488-18|834-19|264-23|63-23|512-23|351-24|515-25|210-25|219-26|169-27|44-28|516-29|434-30|907-30|466-31|588-32|285-34|9-34|423-34|230-34|899-38|104-39|13-39|272-39|402-39|867-39|521-40|261-41|796-42|549-42|254-45|222-45|315-47|711-47|608-47|555-48|698-48|481-48|34-49,9.0-3.65-30|6.5-3.66-27|6.3-3.52-21|8.5-3.41-19|6.8-3.43-17|3.8-3.38-16|11-3.73-16|6.0-3.24-14|9.2-3.52-13|8.4-3.73-12,369
Altitude Chophouse and  Brewery,1999,Wyoming,Laramie,41.310192,-105.595186,557-15|598-15,7.0-3.31-27|6.5-3.15-20|5.5-3.05-17|6.0-3.42-16|5.5-3.04-15|5.1-3.07-13|5.6-2.97-12|5.8-3.12-11,
Alvarado Street Brewery & Grill,2014,California,Monterey,36.598961,-121.89478,156-15|698-28|555-34|711-37|899-39|9-42|423-42|907-47|588-50,8.1-3.87-29|6.6-3.78-27|6.5-3.7-26|7.1-3.66-14|5.6-3.62-14|7.0-3.58-13|6.5-3.5-11,
American Brewing Company (Pacific Brewing & Malting Company),2011,Washington,Edmonds,47.809602,-122.385912,901-1|667-4|372-13|268-15|626-15|189-16|551-20|741-21|746-23|304-26|212-29|323-35|446-35|20-38|106-39|606-47,7.2-3.4-112|6.2-3.53-71|5.7-3.37-41|4.5-2.94-29|7.0-3.56-18|8.5-3.08-12,901
American River Brewing Co.,2011,California,Rancho Cordova,38.602214,-121.270715,502-1|368-6|457-8|205-10|150-11|745-14|596-14|34-22|821-23|520-29|549-34|529-36|642-36|315-40|254-46,5.5-3.52-24|6.0-3.29-16|6.2-3.3-15|7.8-3.38-12,502
American Solera,2016,Oklahoma,Tulsa,36.13695,-96.047103,46-12|277-14,5.5-4.04-72|5.6-3.91-42|5.4-3.6-27|6.0-3.71-20|5.4-3.79-17|6.0-3.95-13,46
Amherst Brewing Company,1997,Massachusetts,Amherst,42.383194,-72.531871,919-14|157-15|653-16|885-20|128-34|835-37|912-39|890-41|211-42,5.3-3.4-45|5.25-3.01-39|4.6-3.3-33|5.35-3.24-30|6.7-3.36-29|5.25-2.84-23|5.2-3.02-14|5.4-3.1-13|7.2-3.46-11|4.6-3.09-11,
Amicas Pizza & Microbrew,2003,Colorado,Salida,38.535147,-105.991773,,7.0-3.49-26|6.0-3.32-16|5.2-3.12-15|9.0-3.25-13,
Amnesia Brewing,2004,Washington,Washougal,45.578378,-122.352085,253-6|28-17|144-19|318-22|733-25|302-31,6.2-3.3-74|5.2-3.21-55|5.3-3.52-48|5.8-3.57-43|5.5-3.03-31|10.2-3.65-28|6.2-3.4-26|7.5-3.26-12,
Anchor Brewing Company,2001,California,San Francisco,37.76312,-122.400952,13-1|272-6|434-7|521-8|230-9|44-10|261-13|351-14|285-14|608-15|512-20|448-23|464-24|210-24|834-26|516-26|675-27|402-27|867-27|96-27|160-27|845-27|705-27|449-31|222-31|515-31|169-34|264-36|588-36|488-37|219-38|254-41|907-41|662-41|600-42|315-47|369-48|408-48,4.9-3.31-3758|5.6-3.82-3051|5.9-3.57-3014|8.8-3.82-2200|5.5-3.53-2101|4.5-2.87-1122|5.5-3.49-1005|6.5-3.48-901|6.0-3.46-884|4.9-3.2-717,13
Anchorage Brewing Company,2011,Alaska,Anchorage,61.138681,-149.886671,62-6,7.0-3.82-591|8.0-3.98-490|6.0-3.89-457|9.0-3.99-408|6.5-3.75-395|9.0-3.86-383|8.0-3.84-355|6.0-3.69-294|6.5-3.87-274|8.5-3.73-249,62
Anderson Valley Brewing Company,1986,California,Boonville,39.024889,-123.312357,884-43|139-49,7.0-3.65-2195|5.8-3.63-1886|5.8-3.42-1273|6.9-3.46-1151|10-3.32-809|6.9-3.68-798|5.0-3.24-736|8.7-3.62-694|4.2-3.45-667|6.8-3.42-609,
Angel City Brewing Company,1999,California,Los Angeles,34.046448,-118.237919,611-5|1-5|576-5|371-7|548-8|470-9|671-9|120-9|241-9|546-10|918-10|663-11|363-11|273-11|233-11|592-11|359-11|300-12|426-13|266-13|625-14|325-15|170-15|749-16|432-16|324-16|35-17|503-17|260-17|910-17|385-17|866-18|568-18|861-18|398-18|237-18|182-18|773-19|779-19|761-20|55-21|311-22|892-22|722-22|183-23|645-25|330-25|703-25|757-25|134-25|155-26|161-28|433-28|760-28|639-28|56-30|132-31|238-32|419-32|659-34|441-34|84-34|401-35|308-37|510-39|181-39|538-39|116-39|355-39|299-41|407-42|740-44|152-46|283-49|58-50|522-50,6.1-3.41-75|5.6-2.95-33|--3.05-20|4.4-3.45-20|5.2-3.15-19|3.3-3.19-16,1
Angry Chair Brewing,2014,Florida,Tampa,28.005147,-82.459218,52-8|743-18|77-19|251-20|417-22|288-34|710-41|687-47,7.5-3.84-94|7.4-3.92-64|4.6-3.71-50|8.0-3.93-49|8.0-3.48-49|3.4-3.54-47|7.5-3.95-39|5.2-3.51-39|--3.89-37|--3.76-37,52
Angry Minnow,2004,Wisconsin,Hayward,46.011259,-91.490411,,5.4-3.3-31|4.7-3.38-23|--2.83-17|8.5-3.59-15|--3.13-13,
Anthem Brewing Company,2012,Oklahoma,Oklahoma City,35.460927,-97.527762,26-3|617-3|638-6|358-15|224-18,8.5-3.55-44|7.0-3.31-35|6.0-3.38-27|6.5-3.44-19|17-3.79-15|--3.65-14|--3.31-11,26
Apocalypse Ale Works,2013,Virginia,Forest,37.362213,-79.287733,422-8|297-37,8.0-3.51-45|5.0-3.17-25|7.4-3.17-22|7.5-3.43-18|7.9-3.28-16|6.2-3.2-15|7.5-3.33-12,
Apocalypse Brew Works,2012,Kentucky,Louisville,38.256571,-85.72067,808-5|27-14,4.6-3.26-21|5.8-3.26-15|7.7-3.32-15|4.5-2.94-15|5.2-3.17-14|4.7-3.08-14|7.2-3.23-13|5.0-3.18-11,
Appalachian Brewing Company (PA),2000,Pennsylvania,Harrisburg,40.26375,-76.874336,758-1|836-22|604-32|352-50,5.2-3.09-259|5.3-2.64-191|6.2-3.26-185|4.5-2.59-173|4.9-3.03-170|12.8-3.64-106|4.6-3.43-89|--3.07-72|5.2-3.08-67|7.2-3.26-62,758
Appalachian Mountain Brewery,2013,North Carolina,Boone,36.20352,-81.668865,914-37|534-37,7.1-3.41-31|6.0-3.63-23|6.6-3.52-18|4.7-3.25-13,
Arbor Brewing Company Brewpub,1999,Michigan,Ann Arbor,42.280348,-83.748392,228-5|623-17|390-19|313-20|396-23|641-25|565-26|458-28|310-29|386-32|609-34|17-35|593-36|235-39|66-40|193-40|188-41|459-43|785-44|296-47|771-49,6.8-3.39-241|7.5-3-151|5.5-3.25-124|5.2-3.11-107|8.5-3.54-107|5.5-3.07-100|5.0-3.47-99|5.8-2.9-87|8.8-3.36-84|9.3-3.35-76,228
Arcadia Brewing Company,1996,Michigan,Battle Creek,42.321928,-85.185007,709-3|439-20|787-21|235-46|450-47|771-48|736-48,8.1-3.54-737|5.9-3.16-565|9.0-3.7-557|7.0-3.71-509|7.0-3.32-499|8.5-3.34-451|10-3.54-431|6.2-3.12-385|9.0-3.63-336|6.0-3.45-331,709
Ardent Craft Ales,2014,Virginia,Richmond,37.568296,-77.471958,98-3,6.8-3.46-29|9.8-3.57-19|6.7-3.27-18|7.8-3.12-12|6.4-3.22-11,98
Argus Brewery,2010,Illinois,Chicago,41.690875,-87.615773,409-5|632-7|444-9|629-12|613-12|376-13|2-13|637-14|706-17|416-17|815-22|750-22|837-24|453-24|532-25|438-25|913-26|175-28|610-28|685-29|818-29|878-29|668-30|168-32|113-32|436-35|489-35|880-36|915-37|874-38|248-40|701-41|347-44,6.2-2.96-84|5.4-3.03-25|5.0-2.68-23|6.5-3.16-22|5.5-3.1-17|5.0-3.04-16|4.6-2.83-11|6.5-3.13-11,2
Arizona Wilderness Brewing Company,2013,Arizona,Chandler,33.315669,-111.841383,91-2|78-2|142-8|37-9|94-15|86-24|816-28|148-29|742-30|412-30|461-33|215-38|5-40|640-43,11-4.03-124|6.6-3.85-84|6.8-3.74-83|3.2-3.69-73|6.9-3.67-54|10-3.88-54|4.8-3.22-51|4.6-3.4-50|10.1-3.61-46|8.5-4.04-45,78
Arrogant Brewing,1997,California,Escondido,33.115648,-117.120274,165-2|345-4|305-9|754-10|243-12|136-17|569-17|74-17|647-20|612-20|7-27|281-27|594-31|262-33|536-35|383-38|394-39|627-40|740-47|465-48|407-49,7.2-3.88-4189|11-4-2600|7.2-3.83-2225|7.9-3.69-677|8.5-2.9-216|12.6-3.87-213|5.8-3.47-195|10-2.73-156|12.7-3.89-95|13-3.54-71,165
Arvada Beer Company,2011,Colorado,Arvada,39.799024,-105.081415,244-3|172-4|204-8|599-9|54-12|21-13|831-14|747-17|278-18|267-20|240-21|769-25|343-25|691-32|471-39|307-46,5.8-3.06-22|4.5-3.05-18|5.0-2.98-15,240
Asher Brewing Company,2009,Colorado,Boulder,40.060291,-105.205253,278-1|343-9|599-11|204-18|244-18|471-21|172-22|747-26|54-29|21-30|831-34|307-36|159-37|240-37|267-37|769-44,7.0-3.16-24|9.8-3.26-23|6.0-2.95-20,278
Asheville Brewing Company,2003,North Carolina,Asheville,35.621908,-82.554379,356-2,6.0-3.28-204|5.6-3.36-187|6.2-3.15-78|3.2-2.86-69|5.9-3.34-45|5.2-3.31-45|5.0-3.17-44|3.2-3.09-43|6.5-3.68-42|--3.29-40,356
Aslan Brewing Company,2014,Washington,Bellingham,48.747934,-122.475641,389-2,7.0-3.35-31|3.5-3.36-16|5.3-3.24-15,389
Aslin Beer Company,2015,Virginia,Herndon,38.95637,-77.374977,782-14|542-16|879-16|525-16|164-19|22-19|513-34|636-34|25-47|905-47,6.2-3.62-17|8.4-3.79-16|6.5-3.66-14|5.7-3.72-11,
Aspen Brewing Company,2008,Colorado,Aspen,39.19001,-106.8195,,7.0-3.42-70|5.6-3.01-31|9.3-3.48-17|6.8-2.97-17|6.0-3.14-15,
Astoria Brewing Co. (Wet Dog Cafe),2003,Oregon,Astoria,46.190226,-123.831569,,8.2-3.74-43|6.2-3.39-27|6.5-3.37-25|6.2-3.31-17|8.0-3.3-16|5.4-3.28-15|5.3-3.13-14|4.8-3.03-13|6.1-3.05-13|7.6-3.3-12,
Atlantic Brewing Company,2000,Maine,Bar Harbor,44.388826,-68.206194,,5.8-3.32-429|5.2-3.12-422|5.2-3.02-346|11.8-3.46-254|5.2-2.9-232|7.8-3.5-139|5.5-3.32-111|5.8-2.99-51|7.3-3.09-47|4.5-2.68-46,
Atlas Brew Works,2013,Washington DC,Washington,38.914833,-76.981415,22-2|164-8|636-14|525-19|542-20|879-30|25-33|782-35|513-41,6.2-3.48-74|5.1-3.18-60|9.2-3.65-24|7.3-3.49-22|4.8-3.26-19|7.1-3.36-19|6.7-3.26-14|5.8-3.27-11|8.2-3.24-11,
Atwater Block Brewery,2006,Michigan,Detroit,42.333012,-83.027557,17-2|310-8|188-10|609-13|641-13|565-13|785-13|193-16|458-18|313-18|390-18|396-23|386-23|593-27|623-27|459-28|228-42|591-45,4.5-2.94-732|8.5-3.18-325|5.5-3.29-195|4.2-2.73-195|6.0-2.83-148|4.2-2.86-137|7.5-3.06-132|5.2-2.88-122|6.4-2.95-121|11-3.53-113,17
Auburn Alehouse (CA),2007,California,Auburn,38.896141,-121.078894,596-12|821-14|205-14|457-16|368-17|502-23|529-31|745-32|150-34|34-44|520-45|642-46,8.0-3.62-72|6.5-3.6-69|10-3.45-42|7.8-3.11-37|5.4-3.12-26|4.9-3.37-26|9.8-3.65-24|3.8-3.25-24|5.6-3.31-24|5.0-2.8-12,
Audacity Brew House,2014,Texas,Denton,33.198899,-97.122527,286-1|216-2|495-12|185-16|917-18|739-19|206-21|859-21|770-24|690-24|69-25|274-28|842-29|126-30|327-31|16-31|166-31|87-35|8-35|93-36|827-36|508-37|49-39|622-39|177-41|797-44|580-44|717-44|894-47|902-49,5.2-2.87-20|4.5-3.11-13|6.5-2.89-11|6.9-2.8-11|5.0-3.03-11,216
August Schell Brewing Company,1860,Minnesota,New Ulm,44.259924,-94.511407,904-28,4.6-2.61-317|5.1-3.07-302|5.6-3.11-264|5.5-2.96-247|5.5-3.22-213|5.0-3.44-185|6.9-3.13-170|4.8-2.57-168|5.0-2.89-142|4.7-2.59-119,
Augusta Brewing Company,2001,Missouri,Washington,38.560019,-91.011468,781-20|387-21|666-27|506-36|702-39|57-45,6.5-3.14-71|--3.28-30|--3.36-28|9.0-3.2-27|--3.29-22|5.0-2.9-21|--3.27-21|13-3.31-17|--2.91-14|--2.81-13,
Austin Beer Garden Brewing Co.,2013,Texas,Austin,30.234515,-97.743721,10-7|682-17|574-19|250-19|678-24|665-32|550-42,4.9-3.37-17|4.5-3.39-16|5.5-3.42-14|7.9-3.37-11,10
Austin Beerworks,2011,Texas,Austin,30.380335,-97.730637,10-4|682-9|250-10|574-10|665-22|678-32,6.4-3.41-132|5.3-3.34-98|5.3-3.33-71|5.1-2.81-56|5.6-3.54-30|10-3.79-28|3.0-3.56-26|8.0-3.76-25|7.0-3.48-20|8.0-3.46-19,10
Aviator Brewing Company,2008,North Carolina,Fuquay-Varina,35.614432,-78.807231,870-9|162-10|42-15|81-27|597-30|105-38|716-48,6.7-3.37-179|9.2-3.29-144|6.1-3.33-86|4.8-2.85-49|6.5-3.32-40|7.3-3.3-33|6.5-3.05-31|6.3-3.57-30|6.2-3.17-28|7.2-3.09-26,
Avondale Brewing Company,2011,Alabama,Birmingham,33.524735,-86.774481,100-5|375-9,6.3-3.53-56|7.5-3.37-47|6.8-3.26-46|10-3.21-24|5.3-3.18-22|5.2-3.06-19|9.0-3.09-16|6.9-3.36-14|4.3-3.07-14|7.2-3.29-11,100
Aztec Brewing Company,2012,California,Vista,33.15204,-117.231551,305-3|345-4|243-5|165-9|754-16|612-22|136-24|569-24|74-24|647-25|262-28|536-29|7-30|281-33|594-34|383-35|627-35|394-39|740-41|407-43|465-44|510-46|181-46|538-46|116-46|355-46|308-48,10.2-3.55-74|7.6-3.34-45|6.6-3.35-43|5.2-2.94-19|5.2-2.76-16|6.4-3.14-11|9.9-3.43-11,305
Back East Brewing Company,2012,Connecticut,Bloomfield,41.855132,-72.705686,211-5|460-14|582-17|885-21|790-21|653-21|157-22|585-23|919-24|194-36|252-36|916-40|661-42|891-44|712-47,7.0-3.23-34|6.0-3.32-29|10.5-3.46-21|8.6-3.46-14|4.9-2.93-12|5.0-3.1-11,
Back Forty Beer Company,2009,Alabama,Gadsden,34.017004,-86.004887,,6.0-3.11-175|6.0-2.94-128|7.5-3.35-97|5.5-3.43-95|6.2-3.48-41|4.5-2.88-33|4.5-2.95-31|12-3.53-22|10-3.02-21|8.5-2.98-13,
Back Road Brewery,1996,Indiana,La Porte,41.611756,-86.726429,287-25|777-30|416-31|409-41|720-41|2-50,10-3.35-66|5.0-3.19-63|5.0-3.33-57|5.0-3.03-56|9.0-3.42-47|8.5-3.49-45|5.0-2.97-40|5.0-2.93-38|7.3-3.31-36|5.5-3.05-28,
Backcountry Brewery,2000,Colorado,Frisco,39.576569,-106.094598,240-47,5.6-3.3-98|4.8-3.35-65|6.0-3.26-64|4.7-2.74-54|5.4-2.83-54|4.6-2.78-44|8.1-3.57-23|9.1-3.4-23|3.9-3.18-18|7.5-3.12-11,
Backpocket Brewing,2008,Iowa,Coralville,41.684323,-91.557993,467-5|198-21,5.3-3-66|5.7-3.16-55|5.5-3.01-44|5.2-2.88-43|8.2-3.5-21|7.2-3.43-21|6.0-3.18-17|5.3-2.93-16|6.0-3.31-15|6.5-3.29-13,
Backstreet Brewery,2015,California,Anaheim,33.799783,-117.896037,134-2|56-4|55-4|183-6|703-6|419-6|330-7|639-7|757-7|761-8|238-8|892-9|84-9|385-9|568-10|308-11|749-11|266-13|116-13|355-13|510-13|538-13|181-13|426-15|433-16|407-16|910-16|359-16|645-17|663-17|546-17|35-18|740-18|401-18|659-18|161-19|260-19|548-19|470-20|432-20|300-20|773-21|324-21|233-21|671-21|311-22|611-22|722-22|576-23|861-23|237-23|182-23|398-23|779-23|1-24|170-24|592-24|371-24|918-24|625-24|299-25|760-25|363-27|441-27|503-28|241-29|536-31|627-32|58-33|465-33|120-34|273-36|262-36|283-37|325-37|689-38|111-39|99-41|383-43|866-43|155-44|485-45|674-45,6.5-3.01-27|4.8-2.86-25|5.0-2.64-17|5.2-2.58-15,55
Backwoods Brewing Company,2012,Washington,Carson,45.729543,-121.820338,253-33|144-44|28-45,6.7-3.49-54|6.5-3.48-31|5.2-3.06-22|5.5-2.94-20|8.5-3.47-15|10-3.35-15|5.0-3.25-12,
Bad Beat Brewing,2014,Nevada,Henderson,36.063577,-115.020284,29-9|70-10|95-12,5.6-3.13-15|7.3-3.49-14|4.5-3.37-13|5.7-3.41-11,70
Bad Weather Brewing Company,2013,Minnesota,St. Paul,44.938835,-93.110104,65-1|527-7|45-8|528-10|755-12|788-13|738-15|361-15|571-17|556-17|586-18|452-18|719-18|418-19|562-21|530-21|615-22,6.0-3.37-42|7.5-3.61-31|5.0-3.05-16|7.0-3.38-15|5.0-3.26-14|7.0-3.11-14,65
Baderbräu Brewing Company,2012,Illinois,Chicago,41.846962,-87.625211,2-3|444-4|376-7|637-9|706-9|632-11|409-12|532-14|438-15|815-17|613-19|818-19|610-19|837-20|750-20|629-21|668-22|416-24|913-24|685-25|453-25|436-26|489-26|175-28|874-29|915-31|880-31|878-32|113-32|347-33|248-34|701-35|168-37|911-46,4.8-2.88-36|5.5-3.41-24|6.0-2.96-14|6.0-3.32-13,2
Badger Hill Brewing Company,2012,Minnesota,Shakopee,44.794371,-93.467405,556-4|361-5|719-8|755-9|788-9|571-10|528-11|738-12|452-15|615-15|45-16|65-21|418-22|530-23|562-26|527-26|586-27,5.7-3.27-51|6.3-3.36-45|5.0-3.21-38|7.0-3.26-30|5.6-3.47-23|5.2-2.91-21|8.0-3.22-12,
Baerlic Brewing,2014,Oregon,Portland,45.506977,-122.654876,28-2|318-7|733-10|253-11|144-12|302-16|151-42,6.8-3.55-22|6.0-3.22-17|6.3-3.51-16|6.8-3.38-15|6.0-3.33-14|6.5-3.39-13,28
Bagby Beer Company,2014,California,Oceanside,33.189474,-117.374241,243-4|305-7|345-13|165-18|536-21|754-24|262-25|612-26|627-32|647-32|136-33|74-33|569-33|740-34|7-34|383-34|407-36|538-39|116-39|355-39|181-39|510-39|594-40|281-40|394-41|465-41|308-41|84-45|419-46|238-46|56-48|111-49|639-49,6.8-3.53-67|9.2-3.5-49|9.5-3.49-41|5.6-3.31-40|6.1-3.41-34|11.4-3.38-32|6.4-3.24-32|8.8-3.59-32|8.4-3.4-30|7.7-3.52-28,136
Bale Breaker Brewing Company,2013,Washington,Yakima,46.577298,-120.435455,321-10,6.8-3.77-125|4.5-3.68-101|8.2-3.79-40|7.3-3.54-15,321
Baltimore-Washington Beer Works,2000,Maryland,Baltimore,39.438964,-76.592139,25-10|636-33|836-37|525-38|542-39|513-40|22-43|604-47|164-50,5.25-2.75-175|7.25-3.43-71|4.5-2.97-43|4.5-3.14-20|8.0-3.59-20|6.5-2.6-18,25
Banded Horn Brewing Company,2014,Maine,Biddeford,43.492819,-70.451471,518-15,6.0-3.4-30|4.6-3.4-28|8.7-3.64-23|6.5-3.49-16|2.9-2.63-13|7.5-3.71-13|5.4-3.47-13|4.3-3.03-11,
Banger Brewing Company,2012,Nevada,Las Vegas,36.169157,-115.140851,29-2|95-3|70-19,7.7-3.31-23|5.9-3.29-21|5.9-3.32-17|6.0-3.21-15,29
Bar Harbor Brewing Company (Atlantic Brewing Company),2000,Maine,Bar Harbor,44.387334,-68.204926,,6.7-3.75-507|5.0-3.23-158|3.5-3.03-88|--2.95-76,
Baranof Island Brewing Company,2010,Alaska,Sitka,57.050467,-135.307455,,6.25-3.27-34|7.25-3.57-31|6.5-3.3-21|5.0-2.96-15|6.0-3.12-11|6.0-2.93-11,
Bare Bones Grill & Brewery,1988,Maryland,Ellicott City,39.278221,-76.8264,25-11|636-21|525-21|542-22|22-27|513-29|164-34|782-45|836-48,4.75-2.89-12|4.25-2.69-12|5.25-2.88-12|6.3-3.19-11|4.7-3.1-11,
Barley and Hops Grill and Microbrewery,1999,Maryland,Frederick,39.382049,-77.399908,513-6|542-19|525-20|905-21|782-26|22-38|25-42|164-43|879-44|636-45,5.2-3.27-30|5.9-3-28|5.7-2.95-22|5.3-2.77-20|5.4-2.78-17|6.5-3.05-16|4.2-2.74-13,513
Barley Browns Brewpub,1998,Oregon,Baker City,44.778916,-117.829652,,7.0-3.85-87|7.5-3.69-62|9.3-3.84-39|--3.67-38|5.0-3.44-34|7.3-3.61-31|9.0-3.76-28|5.5-3.63-27|8.3-3.78-26|10.5-3.58-25,
Barley Creek Brewing Co.,2001,Pennsylvania,Tannersville,41.062626,-75.339554,437-28|888-32|223-32|443-33,5.8-3.2-122|4.8-2.77-87|4.8-2.8-80|5.6-2.71-63|5.8-3.13-25|--2.08-24|--2.97-20|10.5-3.11-20|--3.21-17|--3.06-16,
Barley Forge Brewing Company,2014,California,Costa Mesa,33.678433,-117.887938,238-1|639-4|56-5|419-6|355-7|538-7|116-7|510-7|181-7|308-8|134-8|330-8|84-10|740-11|407-12|55-12|761-13|183-14|703-14|385-15|757-15|749-17|892-17|568-19|266-19|35-20|426-20|663-22|433-23|324-23|401-24|536-24|546-24|359-24|659-24|300-24|910-25|645-25|182-25|237-25|861-25|398-25|470-25|548-26|170-26|161-26|260-27|592-28|611-28|432-28|773-29|671-29|233-29|1-29|627-30|576-30|299-30|311-30|722-31|503-31|363-31|779-32|371-32|918-32|262-33|625-33|241-33|760-33|465-33|441-35|58-37|111-41|120-41|383-41|325-42|283-42|689-43|273-43|99-45|485-48|866-49|243-49|305-50|674-50,6.2-3.33-44|6.6-3.45-31|5.1-2.85-21|5.0-2.8-18,238
Barley Island Brewing,2002,Indiana,Noblesville,40.045448,-86.006374,643-2|377-6|365-11|654-14|793-14|11-20|683-31|634-33|482-33,6.5-3.32-219|6.0-3.48-203|4.3-2.99-145|4.9-3.47-138|4.9-3.41-130|--3.44-105|4.8-2.92-84|--3.1-83|6.7-3.31-80|10-3.44-71,
Barley Johns Brew Pub,2003,Minnesota,St. Paul,45.037152,-93.19787,45-5|65-8|586-10|418-11|788-13|755-13|452-13|562-13|530-14|527-14|528-15|719-16|361-17|556-18|738-20|571-22|615-28,13-4.13-391|6.8-3.23-79|14-3.44-31|14-3.77-30|13.6-4.03-29|9.8-3.55-26|5.2-3.24-24|8.5-3.31-22|7.0-3.43-21|6.2-3.32-19,65
Barley John’s Brewing Company,2015,Wisconsin,New Richmond,45.108712,-92.548799,527-24|65-29|586-36|45-36|528-39|562-41|738-42|755-42|418-42|788-43|530-44|361-45|571-45|452-45|556-47|719-47|615-48,8.0-3.76-149|7.2-3.5-116|4.2-3.13-94|6.9-3.19-18,
Barley Mow Brewing Company,2012,Florida,Largo,27.916994,-82.794078,417-1|251-4|743-5|77-14|52-14|710-41|687-43,6.8-3.14-47|6.5-3.55-46|7.4-3.47-46|7.0-3.26-17|5.1-3.25-16|5.2-3.39-16|7.0-3.3-15|4.8-2.79-13|7.3-3.22-13|4.0-3.11-13,417
Barley’s Brewing Company,1992,Ohio,Columbus,39.971904,-83.002357,14-9|841-12|780-35|602-43,7.6-3.74-105|6.6-3.2-72|7.6-3.53-70|5.6-3.35-69|4.8-3-54|11-3.77-47|6.0-3.48-39|8.0-3.82-38|5.6-3.5-38|6.8-3.53-33,14
BarrelHouse Brewing Company,2013,California,Paso Robles,35.640598,-120.700313,801-32,7.0-3.59-59|6.5-3.51-52|6.0-3.44-27|9.5-3.44-24|4.5-3.19-16|9.6-3.58-15|5.0-3.04-14,
Barrier Brewing Company,2009,New York,Oceanside,40.639408,-73.655444,850-4|657-6|0-19|406-20|499-21|696-21|498-22|704-22|73-23|537-24|114-24|881-26|833-27|624-28|202-28|477-29|208-29|367-30|539-30|68-31|886-31|174-33|708-34|353-35|729-40|828-43|651-43|171-49,7.3-3.7-69|6.3-3.75-49|7.5-3.54-38|5.6-3.36-34|5.0-3.33-33|6.6-3.52-28|9.5-3.71-27|6.5-3.41-26|6.1-3.5-25|3.8-3.01-25,
Barrington / Berkshire Mountain Brewery,1995,Massachusetts,Great Barrington,42.220587,-73.342842,835-19|885-30|744-35|919-36|157-38|653-38|298-42|582-43|211-46|460-48,4.9-3.47-32|--3.35-31|--3.37-30|--3.23-22|5.0-3.23-19|--3.24-16|4.5-3.19-13|11-3.34-12|6.0-3.29-11,
Barrio Brewing Co.,2008,Arizona,Tucson,32.214544,-110.959811,32-1|882-16,5.6-3.27-37|4.53-2.7-37|7.0-3.59-34|6.1-3.17-32|9.2-3.53-30|5.6-3.01-29|7.2-3.3-28|4.53-2.91-26|6.8-3.18-24|6.0-3.42-22,32
Base Camp Brewing Company,2011,Oregon,Portland,45.519914,-122.656452,28-2|318-7|733-10|253-11|144-11|302-16|151-43,6.8-3.44-127|7.7-3.47-105|5.7-3.37-72|6.7-3.4-71|5.1-3.59-67|5.0-3.35-57|5.6-3.18-47|4.9-3.29-46|7.1-3.22-38|6.8-3.32-25,28
Basil Ts (Red Bank),1999,New Jersey,Red Bank,40.353469,-74.075151,708-16|828-19|886-21|651-21|537-22|202-23|0-23|729-25|73-26|696-27|68-28|881-28|498-30|539-30|704-30|850-33|373-34|477-35|657-35|367-36|833-37|174-39|499-40|406-42|114-42|624-49,5.0-3.4-30|5.0-2.99-22|5.5-3.03-17|4.25-2.75-17|4.5-2.76-15,
Bastone Brewery,2004,Michigan,Royal Oak,42.48713,-83.144037,609-0|193-7|458-8|188-8|17-11|785-11|386-11|310-12|396-14|313-14|593-15|641-16|390-16|459-16|565-18|623-19|228-39|591-40|296-46,--3.25-43|7.5-3.15-38|6.75-3.31-29|--3.16-24|4.0-2.53-21|9.0-3.14-19|9.0-3.46-11,609
Bat Creek Brewery,2010,Missouri,Bowling Green,39.341814,-91.193146,898-42|387-47|666-48,6.9-3.04-30|--3.43-28|6.4-3.1-17|7.1-3.25-12|--2.97-11,
Battered Boar Brewing Company,2009,Oklahoma,Edmond,35.623674,-97.509586,358-4|26-10|617-10|638-11|224-29|791-41,7.0-3.05-58|6.5-3.01-29|6.0-3.07-27|7.0-2.92-21|6.5-3.15-21|6.0-2.93-18|--3.14-13,358
Bauhaus Brew Labs,2014,Minnesota,Minneapolis,45.000753,-93.245928,45-2|65-8|788-9|755-9|452-10|418-11|586-11|528-13|719-13|530-13|562-13|361-14|556-14|527-15|738-18|571-19|615-25,5.4-3.62-49|6.7-3.46-45|5.0-3.44-39|5.4-3.21-34|5.7-3.3-19|6.0-3.14-17|7.0-3.32-15|8.0-3.35-14|5.5-3.43-12,45
Baxter Brewing Co.,2010,Maine,Lewiston,44.095735,-70.219674,518-30,6.9-3.48-200|4.9-3.05-94|6.8-3.56-73|5.3-3.15-54|9.0-3.62-48|6.6-3.29-48|6.0-3.35-42|4.7-3.05-37|5.5-3.12-35|7.0-3.28-21,
Bayern Brewing,1978,Montana,Missoula,46.872572,-114.020229,490-1,5.3-2.84-158|5.2-3-116|6.0-3.14-80|5.4-2.99-69|6.0-3.26-66|8.4-3.31-66|5.4-2.92-64|7.5-3.35-55|6.0-3.12-52|5.7-3.18-52,490
Bayou Teche Brewery,2010,Louisiana,Arnaudville,30.390736,-91.924158,213-11|92-44,5.74-3.12-167|4.8-3.14-68|5.1-3.06-67|5.74-2.96-64|6.0-3.07-46|6.0-3.48-38|6.0-2.88-36|7.0-3.49-29|7.5-3.63-28|8.0-3.11-27,
Beach Chalet Brewery,1999,California,San Francisco,37.777129,-122.491682,13-4|272-7|521-9|230-12|434-12|261-13|608-13|44-15|285-17|351-19|512-24|675-25|448-28|210-28|867-29|402-29|464-29|516-30|834-31|96-31|845-32|160-32|222-32|705-32|515-35|449-36|169-38|600-38|588-40|264-40|219-42|488-42|254-43|907-45|662-46|408-48|139-49|315-49,6.8-3.15-51|5.7-2.94-39|4.5-2.59-36|5.4-3.01-35|5.5-3.23-22|4.7-2.52-15|4.1-2.78-11|5.2-2.85-11,13
Beach City Brewery,2013,California,Huntington Beach,33.70435,-117.995974,639-3|330-3|238-5|134-7|761-8|56-8|55-10|419-10|385-11|749-12|183-13|35-14|181-14|538-14|510-14|116-14|355-14|308-14|84-15|703-15|266-15|426-15|757-16|663-17|892-17|568-17|324-17|740-18|407-18|861-18|398-18|182-18|237-18|300-18|470-19|170-20|546-20|359-21|592-21|548-22|611-23|910-23|1-24|503-24|433-24|645-25|363-25|260-25|671-25|576-26|233-26|432-26|401-27|659-27|161-27|241-27|773-28|371-28|918-29|311-29|536-30|722-30|625-30|779-30|299-33|760-33|325-36|441-36|627-36|120-36|273-38|262-39|465-39|58-41|866-43|283-45|111-46|689-47|383-47|99-49|155-49,9.0-3.6-24|4.7-2.39-19|4.7-3-17|4.7-2.86-15,116
Beach Haus Brewery,2015,New Jersey,Belmar,40.180601,-74.025213,828-27|708-27|651-31|886-33|537-34|202-35|0-35|729-36|373-37|73-38|696-39|68-40|881-40|850-40|498-41|704-42|539-42|657-43|477-47|367-49|833-49,5.6-3.01-46|--2.45-33|--2.72-29|5.5-2.8-15|8.2-3.18-14|5.3-3.01-13,
Beachwood BBQ & Brewing,2011,California,Long Beach,33.770352,-118.190864,35-2|324-5|861-6|237-6|182-6|398-6|300-8|170-8|426-9|663-9|761-9|749-10|592-10|385-10|470-11|330-11|266-11|503-12|363-13|639-14|611-14|1-14|55-15|134-15|546-16|241-16|548-17|238-17|568-18|359-18|183-19|56-19|576-20|892-21|703-21|671-21|419-21|757-22|371-22|233-23|910-23|325-24|918-24|260-25|84-25|432-25|308-26|116-26|181-26|538-26|510-26|355-26|625-27|773-28|645-28|120-28|433-29|740-30|779-30|311-30|407-30|273-30|722-31|161-31|866-33|659-34|401-34|760-36|441-40|299-41|536-41|155-44|627-48|58-49|132-50|465-50,11.2-4.02-101|7.2-3.84-98|7.1-3.87-67|7.0-3.71-66|7.1-3.71-62|7.1-3.86-61|11.3-3.89-59|9.2-3.85-58|5.9-3.59-49|12-3.81-49,35
Beachwood Blendery,2015,California,Long Beach,33.77025,-118.189747,35-2|324-5|861-6|237-6|182-6|398-6|300-8|170-8|426-9|663-9|761-9|749-10|592-10|385-10|470-11|330-11|266-11|503-12|363-14|639-14|611-14|1-14|55-15|134-15|546-16|241-16|238-17|548-17|568-18|359-18|183-18|56-19|576-20|892-20|703-21|671-21|419-21|757-22|371-22|233-23|910-23|325-24|918-24|260-25|84-25|432-25|308-25|116-26|181-26|538-26|510-26|355-26|625-27|773-28|645-28|120-28|433-29|740-30|779-30|311-30|407-30|273-30|722-31|161-31|866-33|659-34|401-34|760-36|441-40|299-41|536-41|155-44|627-48|58-49|132-50|465-50,5.0-3.71-28|3.7-3.66-23|6.7-3.59-12|3.8-3.41-12,35
Bear Republic Brewing Company,1991,California,Healdsburg,38.611202,-122.870925,139-12|884-12|600-24|408-36|675-38|222-46|608-48,7.5-3.87-2610|8.0-3.91-2015|8.1-3.85-1521|6.8-3.73-1480|6.3-3.48-658|5.4-3.51-636|8.3-3.93-616|8.25-3.82-416|9.75-3.89-403|8.1-3.7-282,
Beer Army Combat Brewery,2012,North Carolina,Trenton,35.069345,-77.36746,492-23|346-35,6.5-3.16-25|10-3.49-19|5.5-3.1-18|5.5-2.93-15,
Beer Valley Brewing Company,2006,Oregon,Ontario,44.015111,-116.954037,762-29|360-34|380-40|97-46,11.5-3.71-476|9.0-3.57-351|10.5-3.48-181|6.0-3.34-118|11-3.84-93|6.6-3.42-87|5.5-3.11-82|9.0-3.8-77|4.0-3.23-34|6.5-3.13-31,
Beer Works,1992,Massachusetts,Boston,42.364699,-71.060393,23-2|413-2|857-3|263-4|681-4|584-5|350-7|332-9|319-9|561-9|656-12|707-13|903-17|316-19|631-21|865-21|256-24|425-24|772-26|563-30|648-32|838-32|357-33|889-35|890-37|472-38|792-41|912-41|133-42|128-42|404-44|348-44|247-48,6.8-3.36-131|4.8-3.01-101|5.8-3.1-97|5.0-3.12-61|4.0-3.25-60|5.0-3.13-60|5.0-3.04-49|4.5-3.14-48|5.5-3.02-47|6.0-3.19-39,23
Begyle Brewing Company,2012,Illinois,Chicago,41.955001,-87.674979,2-6|532-6|438-7|706-8|376-9|637-9|444-10|818-11|610-13|815-15|668-15|632-17|837-18|436-19|489-20|409-20|750-21|874-21|913-23|685-23|613-24|347-26|915-26|629-27|453-27|880-27|175-28|701-29|248-29|416-31|113-32|878-34|911-39|168-40|293-47,7.0-3.43-53|6.0-3.58-36|7.1-3.64-34|5.3-3.52-32|5.2-3.26-27|5.4-3.56-23|5.6-3.52-21|9.8-3.51-21|6.2-3.29-18|8.6-3.5-17,2
Belching Beaver,2012,California,Oceanside,33.143927,-117.229089,305-4|345-4|243-5|165-9|754-15|612-22|136-24|569-24|74-24|647-25|262-29|536-29|7-29|281-32|594-34|383-36|627-36|394-39|740-42|407-44|465-45|510-46|181-46|538-46|116-46|355-46|308-49,5.3-3.62-359|7.3-3.59-131|5.3-3.56-106|9.0-3.69-87|8.8-3.53-68|5.5-3.06-58|7.0-3.49-45|6.5-3.42-43|4.7-3.42-40|5.3-3.58-34,136
Bellevue Brewing Company,2011,Washington,Bellevue,47.626862,-122.166903,189-2|372-3|626-4|741-7|667-12|304-13|746-15|212-15|901-16|20-22|446-22|323-23|268-25|106-29|551-29|606-38,7.2-3.59-35|5.6-3.1-23|7.7-3.36-17|5.8-3.42-16|6.2-3.33-11,189
Belmont Brewing Company,1999,California,Long Beach,33.759363,-118.148172,35-4|324-7|761-8|749-9|861-9|237-9|398-9|182-9|330-9|385-9|426-9|300-10|663-10|170-10|266-11|639-12|470-12|592-12|134-13|55-13|503-15|238-15|611-16|363-16|1-16|546-16|56-17|183-17|568-17|548-17|359-18|241-18|703-19|892-19|419-19|757-20|576-20|671-21|910-22|84-23|233-23|371-23|308-23|116-23|355-23|510-23|538-23|181-23|260-24|918-25|432-25|325-26|645-27|625-27|773-27|740-27|407-27|433-28|311-29|779-29|120-30|161-30|722-30|273-32|659-32|401-32|866-35|760-35|441-39|536-39|299-39|155-45|627-45|58-47|465-48|262-48,4.5-2.7-93|6.5-3.5-35|4.5-2.7-24|5.5-2.89-22|4.8-3.07-21,35
Beltway Brewing Company,2014,Virginia,Sterling,38.992264,-77.417296,782-11|542-15|525-16|879-18|22-22|164-23|513-32|636-36|905-44|25-47,5.0-3.79-100|10.4-3.73-83|5.0-3.73-61|4.8-3.76-61|8.0-3.92-57|4.7-3.77-53|5.2-3.59-51|5.4-3.59-49|5.0-3.78-46|5.3-3.72-45,
Benchmark Brewing,2013,California,San Diego,32.787313,-117.102799,7-6|612-7|647-7|594-8|281-13|754-15|74-22|569-22|136-22|165-22|345-27|243-28|305-30,5.1-3.48-28|4.0-3.31-20|4.5-3.27-18|4.5-3.37-15,7
Bend Brewing Company,1996,Oregon,Bend,44.060191,-121.313967,397-5,4.5-3.77-115|8.7-3.76-68|6.5-3.47-59|6.2-3.23-39|5.4-2.95-39|5.8-3.38-36|--2.88-34|9.5-3.56-33|9.5-3.63-26|7.5-3.15-23,397
Benford Brewing,2013,South Carolina,Lancaster,34.77076,-80.831938,491-16|15-34|456-41|382-44|732-48|829-49,11.5-3.34-39|5.9-3.12-18|5.5-3.09-15,
Bent Brewstillery,2012,Minnesota,St. Paul,45.025524,-93.174694,45-5|65-7|586-11|527-13|755-13|788-13|418-13|452-14|562-14|528-15|530-15|719-17|361-17|556-18|738-19|571-21|615-27,5.7-2.88-26|4.4-3.12-20|9.3-3.38-19|5.9-3.18-17|4.7-3.42-14|10.1-3.5-14|5.4-1.88-13|8.3-3.44-13|6.8-3.24-11,65
Bent Paddle Brewing Co.,2012,Minnesota,Duluth,46.767979,-92.121428,364-17,6.2-3.65-81|6.0-3.61-68|6.0-3.62-61|5.0-3.28-45|5.6-3.44-41|7.2-3.57-33|8.9-3.73-32|10-3.89-26|5.5-3.47-22|10.4-3.78-18,364
Bent River Brewing Company,2003,Illinois,Moline,41.505924,-90.517534,851-2|282-3,6.5-3.59-150|4.29-2.59-67|4.6-2.86-64|5.0-3.47-47|5.99-3-46|5.99-3.47-42|4.81-3.09-37|5.99-3.27-34|--3.53-32|--2.79-30,
Berkshire Brewing Company,1990,Massachusetts,South Deerfield,42.477766,-72.61024,919-19|157-21|653-22|885-24|835-33|128-40|912-41|890-43|211-48|744-49,6.2-3.62-358|5.5-3.24-261|8.5-3.54-260|6.2-3.56-226|5.3-2.92-201|9.5-3.43-138|9.0-3.24-120|6.3-3.26-119|6.3-3.25-117|7.0-3.37-94,
Berryessa Brewing Company,2011,California,Winters,38.513613,-122.002795,520-11|315-13|408-14|254-16|642-17|222-26|745-26|34-26|515-36|264-37|150-38|675-39|210-39|502-40|368-42|139-42|529-43|205-43|596-44|261-44|512-44|662-45|608-46|821-46|845-47|600-48|457-48|230-48,8.5-3.74-38|4.0-3.62-17|4.8-3.27-16|6.5-3.32-14|3.8-3.34-13|10.5-3.57-13|8.9-3.41-12|6.5-3.52-12|5.4-3.18-11|6.0-3.57-11,
Berwick Brewing Company,2008,Pennsylvania,Berwick,41.052601,-76.237792,888-24|437-39,7.0-3.35-19|--3.12-16|5.4-3.02-14|5.0-3.13-11|5.6-3.09-11,
Bier Brewery,2011,Indiana,Indianapolis,39.875801,-86.083992,793-4|377-7|11-7|365-8|643-14|683-18|654-25|482-41|634-44|812-48,6.0-3.34-23|5.5-3.24-19|5.1-3.13-15,11
Big Bear Brewing Company,2000,Florida,Pompano Beach,26.253946,-80.254025,207-2|655-3|863-3|552-7|341-7|487-8|275-8|339-9|848-9|421-10|138-12|344-12|306-13|496-14|149-17|543-18|173-18|195-18|242-22|849-23|579-25|587-27|727-27|473-29|737-31|279-36|751-39|847-47|618-48|88-50|335-50|43-50,6.5-3.44-36|7.5-3.25-33|5.8-3.03-26|--3.43-24|4.9-2.39-24|6.0-2.98-22|4.9-2.85-17|--3.12-14,275
Big Bend Brewing Company,2013,Texas,Alpine,30.356234,-103.669881,,6.4-3.35-34|5.6-3.28-33|7.8-3.33-26|4.7-3.24-19|6.0-3.28-17,
Big Boss Brewing Company,2003,North Carolina,Raleigh,35.809873,-78.618338,42-3|162-10|870-18|81-20|597-28|752-39,5.2-3.05-207|7.0-3.07-172|6.75-3.32-142|8.0-3.54-113|4.5-3.03-110|5.5-3.29-101|8.0-3.46-79|4.5-2.97-44|9.0-3.16-30|6.5-3.44-30,42
Big Buck Brewery,1999,Michigan,Gaylord,45.021408,-84.68272,,5.6-3.32-45|5.5-3.14-42|6.7-3.14-32|3.2-2.26-30|5.0-2.68-29|5.2-2.45-23|5.8-3.25-23|4.8-2.93-20|5.5-2.96-18,
Big Choice Brewing,2012,Colorado,Broomfield,39.910263,-105.076913,599-1|244-6|204-6|172-12|278-12|54-16|747-16|21-17|343-18|831-22|267-25|240-28|769-32|471-32|307-39|691-39|159-47,5.7-3.22-24|5.1-2.93-17|6.7-3.35-16|9.5-3.23-16|5.5-2.82-11|6.3-3.18-11,599
Big Dog’s Brewing Company,2004,Nevada,Las Vegas,36.242662,-115.235462,95-7|29-9|70-26,7.1-3.47-93|8.3-3.57-60|5.6-3.08-52|5.3-3.27-45|4.8-2.94-36|5.5-3.4-35|4.0-2.12-28|5.3-3.05-20|4.5-2.94-19|9.5-3.49-15,29
Big Elm Brewing,2013,Massachusetts,Sheffield,42.093687,-73.351201,835-27|885-30|582-36|919-37|653-39|157-39|211-41|460-42|744-44|585-48|298-48|379-50,8.0-3.58-23|7.0-3.34-23|6.5-3.34-15|6.0-3.18-14|10.5-3.34-12,
Big Horse Brewing,1995,Oregon,Hood River,45.70797,-121.516326,253-46,6.9-3.2-45|6.7-3.32-32|6.5-3.52-28|5.0-2.67-13|5.5-2.77-13,
Big Island Brewhaus,2011,Hawaii,Kamuela,20.024651,-155.661849,,6.9-3.67-53|5.8-3.49-53|8.5-3.46-49|6.9-3.51-20|6.5-3.43-13|10-3.41-11,
Big Muddy Brewing Company,2010,Illinois,Murphysboro,37.782423,-89.33199,,6.5-3.47-64|5.4-3.17-63|6.0-3.31-58|7.5-3.47-54|6.0-3.42-49|6.0-3.01-31|6.0-3.19-29|4.3-2.96-24|6.0-3.42-21|10-3.26-19,
Big River Grille & Brewing Works Chattanooga (Gordon Biersch),1993,Tennessee,Chattanooga,35.053817,-85.31066,135-6|862-26,5.18-3.06-160|5.6-3.39-139|3.61-2.31-138|4.7-3.2-99|5.9-3.32-89|5.23-3.05-62|4.95-2.73-46|4.0-3.01-45|5.5-2.99-43|--3.04-34,135
Big River Grille & Brewing Works Lake Buena Vista (CraftWorks),2010,Florida,Orlando,28.365455,-81.552433,533-9|76-17|897-18|814-19|872-24|288-31|649-33|362-41|832-44,5.02-2.9-47|5.5-3.07-35|--2.74-20|7.1-3.33-14|7.0-3.19-13,76
Big Rock Chop House & Brewery,1999,Michigan,Birmingham,42.546986,-83.195946,609-5|458-6|386-7|193-7|593-10|396-11|188-11|459-12|785-13|313-15|17-15|310-16|623-17|390-18|641-19|565-21|228-39|591-40|296-41,12-3.76-110|8.5-3.46-92|--3.54-73|11.8-3.55-72|8.0-3.62-57|--3.56-52|8.0-3.59-36|--3.73-23|13-3.42-20|4.5-2.88-16,
Big Sky Brewing Company,1995,Montana,Missoula,46.922445,-114.073178,490-5,5.1-3.4-1439|6.2-3.54-766|5.0-3.21-497|5.0-2.91-458|11.5-3.97-407|6.2-3.26-391|5.0-2.87-373|8.75-3.74-289|5.4-3.32-243|9.5-3.74-226,490
Big Storm Brewing Company,2012,Florida,Clearwater,27.887416,-82.699737,743-2|417-7|251-8|77-9|52-10|710-36|687-39|288-50,6.2-3.13-60|5.8-3.16-57|7.2-3.13-14|8.0-3.35-14|5.1-3.01-12|5.5-3.17-11,251
Big Time Brewery,1988,Washington,Seattle,47.657317,-122.313389,189-6|372-6|667-7|626-9|901-11|746-13|741-14|304-15|212-18|268-23|446-24|323-24|551-28|20-28|106-29|606-38|823-49,6.2-3.55-145|9.75-3.51-87|5.4-3.41-86|6.4-3.51-86|9.0-3.69-83|5.4-3.1-62|4.5-3.15-57|4.7-3.55-49|6.5-3.62-32|--3.33-32,20
Big Top Brewing Company,2014,Florida,Sarasota,27.322903,-82.448576,687-6|710-6|605-24|77-33|743-43|417-46|52-47|251-50,6.8-3.17-40|5.1-3.14-22|5.1-3.03-19|7.5-3.43-18|9.87-3.46-17|5.2-3.07-12,687
Big Wood Brewery,2011,Minnesota,St. Paul,45.085236,-93.00691,65-10|527-11|586-14|45-15|562-19|418-20|755-22|528-22|530-22|788-22|452-22|361-25|738-26|719-26|556-27|571-28|615-34,5.5-3.32-78|10-3.47-58|6.2-3.28-58|5.3-3.04-41|5.0-2.92-14|7.6-3.19-14,65
Bike Dog Brewing Company,2013,California,West Sacramento,38.566726,-121.545642,745-2|34-13|520-14|502-15|150-16|368-17|205-20|596-22|457-23|642-23|315-26|821-28|254-33|529-34|549-37|408-38|264-42|515-44|662-45|222-45|210-50,5.3-3.45-14|8.4-3.6-13|7.4-3.51-13|4.5-3.45-12,745
Birdsong Brewing Company,2011,North Carolina,Charlotte,35.230503,-80.827122,15-2|732-17|382-18|829-18|456-21|491-26|914-45,5.5-3.43-58|7.0-3.41-34|5.5-3.12-28|5.5-3.42-25|5.7-3.41-19|4.3-3.25-15|6.4-3.43-14|8.9-3.3-12,15
Bison Brewing Company,1989,California,Berkeley,37.866172,-122.258684,230-2|44-6|434-7|261-9|512-10|13-11|351-12|210-14|608-15|272-16|448-17|521-18|845-19|285-21|515-21|705-22|222-22|160-22|464-23|675-24|96-26|264-26|834-26|449-26|516-30|254-31|662-32|402-34|867-34|169-37|488-37|315-37|219-39|408-40|588-40|600-41|369-44|907-44|370-46|139-49,5.0-3.45-556|6.8-3.16-300|6.0-3.23-285|6.0-3.13-173|8.1-3.16-166|5.5-3.2-89|6.0-3.09-64|8.5-3.69-45|7.0-3.21-44|6.0-3.14-36,230
Bissell Brothers Brewing Company,2014,Maine,Portland,43.658784,-70.262393,,6.6-3.85-164|8.0-4.04-64|5.1-3.74-54|4.0-3.76-52|5.6-3.63-34|7.3-3.72-34|7.0-3.55-27|2.6-3.6-21|5.0-3.03-14|8.2-3.67-12,518
Bitter Old Fecker Rustic Ales,2013,Michigan,Chelsea,42.299475,-83.983968,228-7|623-26|235-29|390-31|313-32|396-33|641-37|565-38|458-38|771-40|386-41|310-41|593-44|609-45|66-45|296-47|17-47,10-3.46-18|10.2-3.64-17|9.3-3.48-15,
Bitter Root Brewing,1998,Montana,Hamilton,46.247208,-114.154272,490-43,6.2-3.15-62|--3.18-62|--3.04-50|6.33-3.5-42|5.1-2.97-41|5.9-3.28-34|5.1-2.89-28|7.71-3.38-27|6.7-3.51-26|8.74-3.46-20,
BJ’s Restaurant & Brewhouse,1999,California,Huntington Beach,33.723228,-118.008692,330-2|639-3|134-6|238-6|761-7|56-9|55-9|385-9|749-11|419-11|35-12|183-13|266-13|426-13|703-14|308-15|181-15|538-15|355-15|116-15|510-15|84-15|663-15|757-15|568-16|892-16|324-16|300-17|237-17|182-17|861-17|398-17|470-18|170-19|546-19|740-19|407-19|359-20|592-20|548-21|611-21|910-22|1-22|503-23|363-24|433-24|645-24|671-24|576-24|260-24|233-25|432-25|241-26|371-26|161-26|773-27|401-27|659-27|918-27|311-28|625-29|722-29|779-29|536-31|760-33|299-33|325-34|120-35|441-35|273-37|627-37|465-40|262-40|58-41|866-42|283-45|111-46|689-47|155-48|383-48|99-49,8.5-3.31-426|5.5-3.24-414|7.3-3.16-390|6.4-3.14-357|4.8-3.07-314|5.8-3.07-302|4.5-2.6-290|6.5-3.27-202|10-3.42-178|4.7-3.28-129,116
Black Abbey Brewing Company,2013,Tennessee,Nashville,36.104909,-86.755835,24-4|854-16|923-18|679-19|493-19|227-32|180-43,5.7-3.41-29|5.5-3.49-23|5.3-3.27-19|5.7-3.4-16|5.8-3.4-16|5.6-3.2-15,
Black Bear Brewery,2000,Maine,Orono,44.883325,-68.671477,,6.3-2.87-34|4.5-2.9-26|--2.94-21|4.8-2.81-17|--2.95-13,
Black Bottle Brewery,2012,Colorado,Fort Collins,40.566872,-105.076767,159-3|471-15|307-24|343-28|278-36|599-44|204-49,5.7-3.26-19|8.4-3.18-18|6.0-3.22-17|7.9-3.28-15|8.0-3.41-13|6.7-3.2-13|4.9-3.09-13|6.0-2.77-12|6.9-3.36-12|7.5-3.27-12,159
Black Diamond Brewing Company,1994,California,Concord,38.013923,-122.032283,210-4|515-6|512-10|264-12|845-14|222-16|448-17|230-18|254-18|44-19|261-20|662-21|434-21|351-22|705-22|315-23|160-24|608-26|13-27|449-27|675-28|464-29|96-31|408-32|272-32|834-33|521-34|285-34|34-36|370-38|520-39|516-40|488-41|369-42|169-44|219-46|600-46|63-46|402-47|867-47|549-47|745-48|466-49|588-49|150-49,9.0-3.68-249|7.3-3.33-158|8.0-3.53-153|9.0-3.59-93|4.6-3.45-91|5.3-3.06-87|6.3-3.59-74|7.9-3.52-72|9.0-3.54-61|7.0-3.41-56,210
Black Forest Brew Haus,2002,New York,Farmingdale,40.752259,-73.414417,657-10|850-11|208-22|406-22|499-24|353-26|624-27|114-27|704-32|0-32|498-32|696-32|833-34|73-35|537-37|881-37|712-37|477-38|171-39|367-39|202-41|174-41|891-41|539-42|68-42|379-43|661-44|886-45|708-48|194-49|252-49,5.1-3.21-30|5.4-3.11-27|--3.08-25|7.4-3.41-24|7.6-3.21-20|8.3-3.5-19|6.8-3.36-16|8.0-3.07-12|7.5-3.1-12|5.0-3.22-11,
Black Hog Brewing,2014,Connecticut,Oxford,41.476176,-73.14956,891-11|194-14|252-14|171-16|661-18|582-18|379-18|712-18|585-18|460-23|790-26|353-29|211-32|208-35|624-45,5.5-3.32-37|6.5-3.39-32|4.7-3.43-24|5.5-3.34-11,
Black Husky Brewing,2010,Wisconsin,Milwaukee,43.070957,-87.900252,30-5|794-6|581-7|474-16|420-26|293-31|765-45,8.3-3.5-47|7.2-3.61-26|8.7-3.24-24|7.2-3.25-18|10.9-3.48-15|8.0-3.22-12|8.9-3.27-11|7.0-3.27-11,30
Black Lotus Brewing Company,2006,Michigan,Clawson,42.533607,-83.14624,609-3|193-4|458-8|188-9|386-9|785-11|593-12|459-13|396-14|17-14|310-16|313-16|390-18|641-19|623-20|565-21|591-39|228-40|296-44,6.5-2.97-25|6.0-3.09-23|9.0-2.91-13|6.0-3.29-12,
Black Market Brewing Company,2009,California,Temecula,33.519053,-117.169654,383-10|262-10|627-15|394-16|465-20|305-23|345-24|111-25|536-26|243-27|165-29|909-31|407-31|740-33|485-34|58-35|538-36|510-36|355-36|116-36|181-36|308-36|754-37|84-37|299-39|689-39|697-39|74-39|136-39|569-39|419-40|401-40|99-41|659-42|674-42|283-43|56-43|803-43|238-44|692-45|757-46|703-47|639-47|433-47|612-48|134-48|647-48|183-49|161-49|892-50,7.5-3.66-178|5.8-3.68-122|3.8-3.19-84|5.0-3.27-83|3.8-3.17-81|3.8-3.38-78|9.5-3.6-72|4.5-3.2-51|15-3.89-47|5.5-3.4-39,265
Black Raven Brewing,2009,Washington,Redmond,47.685438,-122.14553,626-1|372-2|189-6|741-7|667-10|901-13|304-17|746-19|212-19|268-21|20-24|551-25|446-27|323-27|106-33|606-42,6.9-3.52-117|8.9-3.9-77|9.5-3.82-66|6.5-3.69-52|6.8-3.56-48|5.6-3.57-40|12.2-3.65-37|7.0-3.36-35|5.9-3.36-35|5.9-3.43-34,626
Black Shirt Brewing Company,2012,Colorado,Denver,39.769496,-104.973251,244-5|54-6|204-7|21-7|172-8|831-12|599-12|747-13|267-14|769-21|240-22|278-23|691-28|343-28|471-43|307-45,7.88-3.13-27|6.3-3.35-21|6.83-3.11-19|6.43-3.09-15|7.09-3.1-14|6.96-3.03-12,21
Black Star Co-op Pub & Brewery,2011,Texas,Austin,30.339556,-97.718344,10-3|682-10|250-12|574-13|665-24|678-30|550-49,6.6-3.46-33|4.7-3.26-30|8.8-3.55-18|3.0-3.24-16|4.4-3.11-14|6.1-2.99-11,10
Black Tooth Brewing Company,2010,Wyoming,Sheridan,44.800801,-106.95354,,4.8-3.46-30|4.6-3.1-25|5.9-3.02-21|6.1-3.32-18|6.2-3.3-11,
Blackberry Farm,2012,Tennessee,Walland,35.696759,-83.850774,127-23,6.3-3.77-198|6.3-3.79-95|6.3-3.75-60|6.3-3.51-48|6.3-3.47-37|6.3-3.75-28|6.3-3.36-27|6.3-3.67-27|6.3-3.6-27|6.3-3.5-26,
Blackhorse Pub & Brewery,2001,Tennessee,Clarksville,36.527241,-87.359812,180-1|24-41|679-43|493-49,3.8-3.01-33|6.0-3-25|--3.5-21|--3.04-16|6.2-2.91-15|10-3.35-13|--2.56-12|6.0-3.14-11|--3.19-11,180
Blacklist Brewing Company,2013,Minnesota,Duluth,46.790402,-92.09792,364-16,4.3-3.39-18|9.5-3.5-15|8.0-3.3-12|9.5-3.22-11,364
Blackrocks Brewery,2011,Michigan,Marquette,46.546395,-87.394593,,7.0-3.73-60|6.0-3.51-34|5.5-3.38-28|10-3.42-16|5.2-3.33-16|6.0-3.28-15|4.8-3.46-14|7.2-3.53-12|5.5-3.43-11|6.0-3.48-11,
Blackstone Restaurant & Brewery,1994,Tennessee,Nashville,36.152261,-86.797837,24-1|679-17|854-20|923-20|493-20|227-36|180-39,5.6-3.17-153|5.5-3.49-137|4.6-2.89-122|5.3-3.3-116|--3.04-47|7.2-3.62-46|5.2-3.35-39|5.1-3.17-29|--3.24-26|--3.26-25,
Blank Slate Brewing Company,2012,Ohio,Cincinnati,39.105598,-84.43057,893-7|64-7|864-17|560-22|766-30|650-43|178-45|813-46,6.8-3.58-23|5.4-3.43-18|6.5-3.45-18|5.4-3.18-17|8.0-3.51-15|10.3-3.45-13|5.5-3.62-12,64
Blind Tiger,1995,Kansas,Topeka,39.000466,-95.685825,201-5|337-26|540-43|192-46,5.4-3.56-62|--3.29-33|--3.12-31|7.5-3.32-29|--2.81-27|--3.37-27|7.3-3.52-22|--3.29-21|4.5-2.7-20|--3.59-20,201
Block 15 Brewery,2008,Oregon,Corvallis,44.562544,-123.261921,658-5|713-9|151-30|154-35|589-37,8.13-3.82-106|11-3.94-98|11-3.64-87|10-3.63-87|6.75-3.71-77|6.25-4.03-54|7.0-3.86-50|9.0-3.75-43|8.0-3.93-36|8.8-3.69-36,658
Bloomington Brewing Co.,1989,Indiana,Bloomington,39.171715,-86.510423,391-8|812-33|683-36|11-46,6.0-3.08-38|5.6-3.19-36|7.4-3.38-35|5.4-3.39-29|6.0-3.35-24|6.6-3.29-24|5.3-2.88-22|4.9-3.07-17|6.3-3.1-11,411
Blowing Rock Brewing Company,2009,North Carolina,Blowing Rock,36.11374,-81.66122,914-32|534-40,5.4-2.78-103|6.2-2.83-37|5.7-2.93-26|5.0-2.93-24|--2.99-17|6.8-3.23-13,
Blue Blood Brewing Company,2011,Nebraska,Lincoln,40.779928,-96.707151,71-8|41-45|684-48,7.0-2.93-22|5.6-2.65-22|5.0-3-16|6.4-2.56-13|5.0-3-11|4.6-2.65-11,71
Blue Cat Brew Pub,1999,Illinois,Rock Island,41.495083,-90.604899,282-2|851-6|467-47,6.5-3.2-34|5.7-3.13-21|6.2-3.32-18|5.0-2.8-17|7.5-3.48-15|5.6-3.2-13|10-3.23-13,
Blue Corn Brewery (Santa Fe),2004,New Mexico,Santa Fe,35.68676,-105.940099,486-2,6.9-3.36-44|5.1-2.99-22|5.0-2.8-20|5.6-3.39-19,486
Blue Frog Brewery,2001,California,Fairfield,38.258346,-122.06005,254-3|315-9|222-10|408-16|515-19|210-21|264-23|520-25|512-27|675-27|261-28|34-29|230-30|845-30|608-31|662-32|44-34|448-34|642-34|434-35|745-36|351-38|705-39|13-39|160-41|139-41|600-41|150-43|449-44|272-45|464-46|521-47|96-48|502-48|549-49|285-49|370-50,8.0-2.91-121|6.3-3.06-71|6.0-3.07-60|6.75-2.96-55|8.4-3.26-48,254
Blue & Gray Brewing Co.,2002,Virginia,Fredericksburg,38.279871,-77.447912,879-32|164-43|22-49,5.0-3.2-49|13-3.34-45|5.0-3.22-44|6.8-3-39|4.7-2.92-26|12-2.86-24|5.6-2.94-24|9.0-2.56-21|--2.63-18|6.5-3.04-15,
Blue Hills Brewery,2009,Massachusetts,Canton,42.150816,-71.104964,316-5|319-8|656-9|350-15|23-16|413-16|263-16|648-17|838-18|561-18|857-18|681-18|584-20|332-23|472-24|889-24|792-27|631-27|707-28|133-28|348-29|404-30|903-31|865-36|256-36|393-36|314-37|425-39|772-40|128-40|890-42|563-44|357-45|912-47,6.9-3.19-34|6.75-3.11-31|9.0-3.33-26|8.0-3.26-18|4.8-2.98-15|4.8-3.12-13|6.9-3.13-13|5.4-2.93-12|5.8-2.84-11|5.4-2.89-11,
Blue Mountain Brewery,2007,Virginia,Afton,38.016023,-78.821844,830-19|718-28|422-49,10-3.76-384|5.9-3.41-271|6.6-3.55-202|10-3.72-133|5.3-3.05-115|7.7-3.38-104|4.9-3.04-104|6.6-3.33-88|7.0-3.31-82|6.5-3.37-77,
Blue Owl Brewing,2015,Texas,Austin,30.254856,-97.717699,10-6|682-15|250-18|574-18|678-26|665-30|550-44,3.4-3.29-25|6.2-3.45-24|5.5-3.34-19|6.1-3.18-14,10
Blue Pants Brewery,2010,Alabama,Madison,34.685276,-86.7382,810-5|125-11|652-16,6.5-3.25-40|8.0-3.42-39|5.0-2.99-31|7.0-3.18-29|10-3.13-29|6.0-3.44-22|5.6-3.41-21|8.7-3.55-19|6.0-3-16|5.25-3.17-16,810
Blue Point Brewing (AB InBev),1999,New York,Patchogue,40.759383,-73.021693,850-30|657-31|712-32|353-34|208-34|661-36|891-39|406-41|171-42|252-42|194-42|624-43|499-44|114-46|379-49,6.8-3.44-938|5.5-3.13-786|4.6-3.03-360|7.5-3.37-317|7.7-3.13-252|10-3.43-244|9.0-3.49-240|7.0-3.49-232|4.39-2.71-231|7.8-3.56-196,
Blue Ridge Brewing Co. (SC),2002,South Carolina,Greenville,34.852783,-82.398214,572-0,4.7-2.97-28|4.5-3.08-27|5.6-3.12-25|3.9-2.73-18|--3.19-13|10-3.64-12,572
Blue Stallion Brewing Company,2013,Kentucky,Lexington,38.057474,-84.501639,60-2,4.9-3.27-16|5.4-3.08-16|5.7-3.28-14|4.2-3.27-12|5.0-3.06-12|4.8-3.15-12,
Blue Star Brewing Co.,2003,Texas,San Antonio,29.410006,-98.49547,6-5|550-32|678-49,11.5-3.32-41|6.0-3.08-40|4.5-3.29-40|4.7-2.87-24|5.0-3.12-23|5.0-2.83-17|4.8-2.89-15|4.3-2.93-11|--3.07-11,6
Blue Tractor BBQ & Brewery,2009,Michigan,Ann Arbor,42.280599,-83.74721,228-5|623-17|390-19|313-20|396-23|641-25|565-26|458-28|310-29|386-32|609-34|17-35|593-36|235-39|66-40|193-40|188-41|459-43|785-44|296-47|771-49,6.9-3.33-28|5.5-3.82-23|5.9-3.36-13|--3.22-13,228
Bluegrass Brewing Company,1993,Kentucky,Louisville,38.256592,-85.754864,808-6|27-12,8.5-3.5-465|5.79-3.26-320|5.6-3.23-282|8.1-3.31-234|4.9-3.18-209|4.19-2.93-207|11-3.57-180|10-3.35-170|7.5-3.11-126|9.0-3.31-106,
Bluejacket,2012,Washington DC,Washington,38.875217,-77.001273,22-3|164-5|636-16|525-21|542-22|879-28|782-34|25-35|513-43,6.0-3.67-59|4.2-3.71-58|7.4-3.67-55|6.0-3.65-54|6.0-3.61-39|5.2-3.53-38|6.0-3.59-38|7.5-3.46-34|6.7-3.65-27|3.8-3.66-27,
BlueTarp Brewing Company,2013,Georgia,Decatur,33.773844,-84.284323,728-9|294-12|39-12|783-12|922-13|686-14|388-18|607-18|317-20|559-23,3.0-3.46-26|4.5-3.43-21|10.1-3.57-16|12.5-3.38-14|6.6-3.37-12,
Bobcat Cafe and Brewery,2004,Vermont,Bristol,44.132773,-73.076947,869-25,9.2-3.47-15|7.62-2.92-12|4.3-3.16-11|9.8-3.28-11|5.8-3.21-11,
Bohemian Brewery & Grill,2002,Utah,Midvale,40.620644,-111.888451,340-3|767-3|249-4|601-6|583-7|896-7|820-8|190-11|123-14|672-16|855-18|331-23|232-29|479-32|374-44,4.0-3.07-94|4.0-3.16-76|4.0-2.92-62|4.0-3.06-21|6.0-3.11-15|5.3-3.24-15,
Bold City Brewery,2008,Florida,Jacksonville,30.319155,-81.695409,12-5,7.0-3.18-120|7.0-3.1-115|5.0-2.8-95|8.0-3.44-53|7.0-3.33-37|--2.82-31|--3.11-26|8.0-3.45-26|7.0-3.25-23|9.0-3.2-20,12
Boneyard Beer Company,2010,Oregon,Bend,44.054109,-121.307922,397-4,6.5-3.77-278|9.0-3.86-222|11.5-4.01-196|10-3.74-139|14-3.71-119|7.0-3.36-74|4.0-3.53-63|5.5-3.66-63|7.0-3.6-62|5.2-3.41-55,397
Bonfire Brewing,2010,Colorado,Eagle,39.655394,-106.826913,,6.6-3.1-29|5.8-3.3-21|6.1-3.31-19|6.5-3.29-15|8.0-3.14-14|5.3-3.14-13|6.4-3.04-13|4.8-2.75-12|4.9-2.83-12,
Boom Island Brewing Company,2011,Minnesota,Minneapolis,44.999836,-93.281942,45-1|788-8|755-8|452-9|418-10|65-10|719-11|586-11|530-12|562-13|528-13|361-13|556-13|527-17|738-18|571-19|615-25,5.5-2.99-36|8.0-3.24-33|8.5-3.36-29|9.5-3.3-20|5.0-2.92-18|6.7-3.19-15,45
Bootleggers Brewery,2008,California,Fullerton,33.87004,-117.92854,183-2|55-2|703-4|892-5|568-5|757-5|134-6|385-7|761-7|749-8|266-9|330-9|56-9|639-11|910-11|419-11|359-11|426-12|546-12|84-13|645-13|433-13|238-13|260-14|663-14|548-14|432-15|161-15|308-16|773-16|233-16|470-16|671-16|35-16|311-17|659-17|401-18|576-18|722-18|300-18|611-18|510-18|355-18|538-18|181-18|116-18|779-18|371-19|625-19|918-19|324-19|1-20|407-21|592-21|760-21|170-22|398-22|861-22|182-22|237-22|740-23|363-24|299-24|441-24|241-25|503-26|120-29|273-31|58-33|325-34|627-35|465-35|283-36|536-36|689-38|155-39|866-39|99-40|262-40|111-40|674-45|485-45|383-46,10-3.84-243|6.7-3.56-211|6.2-3.4-151|5.0-3.28-92|6.1-3.35-89|8.5-3.36-84|5.5-3.28-71|6.1-3.3-58|7.0-3.59-41|7.8-3.26-37,183
Borderlands Brewing Company,2011,Arizona,Tucson,32.223351,-110.96775,32-0|882-16,7.1-3.27-34|4.0-3.49-18|4.0-3.03-11,32
Bottle Logic Brewing,2014,California,Anaheim,33.849299,-117.859844,703-2|183-3|757-3|55-5|892-6|134-6|56-7|419-8|568-8|84-9|330-10|385-10|761-10|639-11|433-12|749-12|308-12|238-12|645-13|266-13|910-13|401-15|659-15|161-15|359-15|181-15|116-15|510-15|355-15|538-15|260-16|426-16|546-16|407-17|432-17|773-17|663-18|548-18|311-18|722-19|233-19|671-20|35-20|779-20|740-20|470-20|299-21|760-21|576-21|300-22|625-22|611-22|918-23|371-23|324-23|441-23|1-24|592-25|170-25|861-26|398-26|182-26|237-26|363-28|241-30|58-30|503-30|627-31|465-31|536-33|283-33|120-33|273-35|689-35|262-36|111-37|99-37|325-38|155-41|383-42|485-42|674-42|866-43,13.4-4.13-71|12-3.99-68|10-3.69-43|12.5-3.99-37|11-3.99-32|7.3-3.31-28|8.8-3.34-24|4.8-3.21-24|9.5-3.35-23|5.2-3.34-16,55
Boulder Beer Company,1979,Colorado,Boulder,40.025856,-105.248582,278-3|599-11|343-12|244-18|204-18|172-21|471-24|747-27|54-28|21-29|831-32|240-35|267-37|307-39|159-40|769-43|691-50,5.0-3.39-1363|7.2-3.55-1256|10-3.6-699|5.9-2.95-572|5.9-3.69-560|6.0-3.28-559|8.0-3.57-546|10-3.39-544|6.3-3.41-508|6.8-3.51-465,278
Boulder Dam Brewing Co.,2007,Nevada,Boulder City,35.978512,-114.836838,70-8|29-20|95-23,4.8-2.51-25|6.5-3.01-22|4.7-2.38-21|5.6-2.78-19,
Boundary Bay Brewery,1995,Washington,Bellingham,48.747185,-122.481178,389-1,6.4-3.5-153|8.5-3.59-104|9.0-3.78-100|8.5-3.33-86|6.4-3.27-84|5.4-3.27-59|10-3.55-57|5.1-2.91-38|5.8-3.13-37|4.2-3.28-33,389
Boxcar Brewing Company,2010,Pennsylvania,West Chester,39.962404,-75.589329,469-16|4-25|352-33|429-36|604-39|577-45|223-45|443-45,5.0-2.54-35|7.0-2.65-31|5.0-2.96-23|7.2-2.79-12,
Bozeman Brewing Company,2002,Montana,Bozeman,45.684493,-111.02373,,7.2-3.52-40|5.5-3.09-40|5.75-3.52-39|6.0-2.84-17|5.0-3.01-12,
Brash Brewing Company,2012,Texas,Houston,29.83159,-95.379554,158-3|3-4|291-20|378-20|484-23|440-24|336-30|554-33|805-42,12-3.64-183|10.5-3.77-151|10-3.73-139|9.0-3.54-132|9.0-3.61-114|8.5-3.48-42|11.5-3.61-30|7.0-3.25-30|5.0-3.48-29|11-3.82-29,3
Brasserie Saint James,2012,Nevada,Reno,39.51672,-119.807227,89-1|320-4|677-25,4.7-3.73-35|7.4-3.39-25|7.5-3.4-21|8.4-3.29-15|6.45-3.54-14|6.0-3.43-11|6.7-3.49-11,89
Brau Brothers Brewing Company,2007,Minnesota,Marshall,44.437949,-95.776107,,5.8-3.54-181|11-3.83-115|7.7-3.27-110|6.7-3.26-108|7.6-3.22-98|7.0-2.98-77|6.8-3.44-62|--2.26-61|9.5-3.4-59|11.5-3.68-53,
Braxton Brewing Company,2015,Kentucky,Covington,39.083202,-84.510388,893-2|64-6|864-17|560-24|766-32|650-46|178-48|813-49,4.8-3.06-32|7.2-3.35-23|7.5-3.48-18|7.2-3.62-13|5.5-3.22-13|5.8-3.31-12|6.5-3.36-12,893
Breakside Brewery,2010,Oregon,Portland,45.571626,-122.657255,28-5|144-8|318-9|253-12|733-13|302-17|151-46,6.7-3.77-173|6.8-3.73-159|4.6-3.65-150|6.7-3.59-115|8.1-3.78-95|6.0-3.63-78|4.7-3.36-75|12-3.66-65|5.2-3.23-59|5.0-3.28-44,28
Breakwater Brewing Company,2009,California,Oceanside,33.20086,-117.389059,243-6|305-8|345-13|165-19|536-20|262-24|754-25|612-27|627-31|740-33|647-34|74-34|569-34|136-34|383-34|407-35|7-35|538-37|355-37|116-37|181-37|510-37|308-40|394-41|594-41|465-41|281-42|84-44|419-44|238-45|56-46|639-48|111-48,8.7-3.88-46|6.2-3.59-34|7.2-3.62-32|7.2-3.31-26|6.9-3.39-20|5.0-3.15-19|6.9-3.45-18|5.0-2.95-18|10-3.23-17|9.1-3.39-17,136
Breckenridge Brewery (AB InBev),1990,Colorado,Denver,39.723664,-105.000335,172-6|54-7|21-8|244-8|831-9|204-10|267-14|599-15|747-16|769-18|240-18|278-25|691-25|343-31|471-45|307-49,4.7-3.27-1475|9.2-3.65-1191|4.95-3.29-941|5.41-2.69-809|7.4-3.12-590|4.2-2.92-550|6.2-3.16-516|4.5-2.69-418|6.7-3.16-369|5.7-2.86-331,21
Brenner Brewing Company,2014,Wisconsin,Milwaukee,43.024163,-87.917001,30-2|581-5|794-5|474-15|420-24|293-28|765-48,5.3-3.48-20|5.1-3.45-19|6.3-3.43-19|4.9-3.18-12,30
Brew Gentlemen,2014,Pennsylvania,Braddock,40.404278,-79.870473,61-6,5.8-3.72-27|6.8-3.74-27|6.0-3.61-19|5.4-3.55-17|8.2-3.66-15|5.4-3.29-15|5.6-3.43-15|5.9-3.53-15|6.6-3.68-14|4.6-3.41-12,
Brewer’s Alley Restaurant & Brewery,2000,Maryland,Frederick,39.416146,-77.410481,513-5|905-20|542-22|525-23|782-28|22-41|25-43|164-45|879-47|636-47,5.8-3.18-94|5.0-3.17-83|6.2-3.38-77|5.1-3.11-55|4.3-2.94-50|4.6-3.24-44|5.4-3-39|4.6-3.14-29|4.5-3.37-19|8.5-3.57-19,513
Brewers Union Local 180,2008,Oregon,Oakridge,43.747712,-122.457262,589-35|154-43,5.3-3.1-16|6.2-3.21-15|6.0-3.19-15|5.5-3.04-14,
Brewery Ommegang  (Duvel-Moortgat),1997,New York,Cooperstown,42.714065,-74.890929,566-30|524-43|298-47,9.7-3.83-2600|7.7-3.7-2336|8.2-3.83-2236|6.5-3.59-1608|5.2-3.42-1128|7.0-3.62-924|6.2-3.66-614|9.5-3.71-553|10-3.66-522|7.0-3.58-519,
Brewery Vivant,2009,Michigan,Grand Rapids,42.984226,-85.629101,122-0|736-3|450-7|439-50,5.5-3.21-160|6.5-3.37-141|6.3-3.56-122|6.0-3.3-102|9.5-3.64-96|9.0-3.49-84|9.3-3.75-65|6.7-3.24-61|10.4-3.68-53|6.5-3.13-49,122
Brewmaster Jack,2012,Massachusetts,Northampton,42.321488,-72.630588,919-9|157-10|653-12|885-14|835-33|211-37|128-39|912-45|460-46|890-47|582-47,6.0-3.53-40|7.0-3.5-34|7.0-3.55-26|4.5-3.19-19|8.5-3.46-19|8.2-3.43-16|7.3-3.46-14|8.0-3.48-13|11.5-3.62-12|11.5-3.44-12,
Brewzzi Microbrewery,1997,Florida,West Palm Beach,26.706622,-80.05697,279-4|727-7|618-17|543-17|587-18|344-23|473-23|421-27|275-33|655-33|207-33|863-36|552-37|848-37|341-40|487-40|138-41|339-41|306-46|141-46|496-47|173-47,5.5-2.83-40|5.5-2.89-34|5.0-2.54-23|3.5-2.84-18|4.0-2.85-14|8.1-3.23-13|--2.31-13,279
BrickHouse Brewery & Restaurant,2002,New York,New York,40.761861,-73.949319,704-4|498-4|696-5|0-6|73-7|881-9|833-10|537-10|477-11|499-12|367-13|114-13|539-14|202-14|406-14|68-15|174-16|886-18|657-18|850-21|624-21|708-24|729-26|208-30|651-32|828-34|353-37|171-49|379-49,5.5-2.99-20|5.5-3.13-20|5.5-3-15|5.1-2.82-11|7.5-2.95-11,0
Brickstone Restaurant & Brewery,2006,Illinois,Bourbonnais,41.190709,-87.888958,168-27|629-27|613-30|878-34|453-37|632-37|409-40|416-40|175-42|750-42|113-43|444-44|376-45|637-46|913-46|837-47|815-48|706-48|685-49|2-50,6.25-3.62-82|7.75-3.37-33|5.8-3.1-16|11-3.49-13|7.2-3.2-12|--3.08-11,
Brickway Brewery & Distillery,2014,Nebraska,Omaha,41.254558,-95.930741,564-3|684-9|41-13,4.8-2.96-18|5.0-3.21-16|5.5-2.93-15|5.2-3.47-12,41
Bridge Brew Works,2010,West Virginia,Fayetteville,38.063982,-81.094259,724-35,7.2-3.51-47|11.09-3.16-35|6.75-3.42-33|--3.33-23|7.4-3.21-19|4.6-3.07-19|9.0-3.11-18|9.2-3-16|8.5-3.42-14|--3.19-14,
BridgePort Brewing,1984,Oregon,Portland,45.530906,-122.684535,28-2|318-6|733-10|144-10|253-12|302-15|151-43,5.5-3.48-976|7.5-3.42-651|6.4-3.28-411|7.5-3.25-337|6.1-3.46-263|9.1-3.53-252|4.9-3.12-180|7.5-3.55-151|5.3-2.87-147|5.6-2.89-134,28
Bristol Brewing Company,1998,Colorado,Colorado Springs,38.810479,-104.826604,40-4|691-39|258-39|769-47,6.5-3.58-188|5.3-3.14-166|18.4-3.52-160|11.25-3.55-152|6.7-3.42-140|5.2-3.2-104|4.38-2.82-97|5.0-2.98-92|6.0-3.23-78|10.9-3.37-70,40
Broad Ripple Brewing Co.,1990,Indiana,Indianapolis,39.873621,-86.143451,365-6|793-7|11-7|377-9|643-16|683-17|654-27|634-44|482-44|812-49,5.6-3.37-55|6.2-3.13-49|6.0-3.22-39|5.0-2.84-36|10.2-3.55-24|4.5-3.13-18|4.7-3.13-14|5.5-2.98-14|4.5-2.8-13|5.5-3.1-12,11
Broken Tooth Brewing Company,2003,Alaska,Anchorage,61.222619,-149.844052,62-0,6.1-3.52-58|5.9-3.46-28|12.1-3.62-25|4.8-3.33-25|6.2-3.35-22|4.1-3.19-21|5.1-3.42-20|5.1-3.29-19|5.1-3.3-19|4.2-2.97-18,62
Brooklyn Brewery,1987,New York,New York,40.721592,-73.957626,0-4|696-4|498-5|704-6|73-6|537-9|881-9|202-12|833-12|477-13|539-14|68-14|367-14|499-15|114-16|406-16|886-17|174-17|657-19|850-20|708-22|624-24|729-25|651-30|828-31|208-32|353-39|373-50,10-3.98-3394|5.2-3.44-2453|6.9-3.39-2188|5.6-3.4-1846|9.0-3.66-1333|7.6-3.69-1304|5.0-3.05-1079|5.1-3.08-966|10.5-3.95-965|5.5-3.14-918,
Brothers Craft Brewing,2012,Virginia,Harrisonburg,38.45744,-78.86106,718-3|830-36,7.1-3.17-68|13.5-3.64-62|5.0-3.5-48|4.8-3.08-45|8.4-3.59-33|10.3-3.3-20|7.0-3.31-20|5.0-3.24-17|9.1-3.49-16|6.9-2.79-16,718
Brouwerij West,2010,California,San Pedro,33.72689,-118.280513,861-4|398-4|237-4|182-4|324-6|35-7|170-8|503-9|300-10|592-11|363-14|663-14|426-14|470-14|761-15|749-16|385-16|241-16|330-17|266-17|1-17|611-18|639-19|134-20|55-21|546-21|238-21|548-22|325-23|359-23|576-24|568-24|56-24|183-24|671-26|892-26|419-27|371-27|703-27|757-28|233-28|910-29|918-29|116-30|355-30|181-30|510-30|538-30|308-30|84-31|120-31|260-31|432-31|625-32|866-33|273-33|740-33|773-33|645-34|407-34|779-35|433-35|311-36|722-36|161-37|659-40|401-40|760-42|536-44|441-46|299-47|155-48,10.5-3.34-71|6.5-3.36-60|7.0-3.35-52|8.5-3.25-48|5.5-3.25-42|7.0-3.37-12,
Brown’s Brewing Company,1997,New York,Hoosick Falls,42.926546,-73.345125,744-17|835-31|524-37|298-38,5.5-3.26-90|5.75-3.37-68|6.5-3.18-54|5.5-3.22-49|6.5-2.93-46|4.75-3.36-38|10.2-3.56-31|5.0-3.07-21|5.75-3.08-20|5.0-3.02-19,
Brugge Brasserie,2005,Indiana,Indianapolis,39.870695,-86.141559,793-7|365-7|11-7|377-9|643-16|683-17|654-27|482-44|634-44|812-49,10-3.44-114|7.0-3.22-79|4.0-3.24-63|6.0-3.57-49|12-3.73-30|--3.42-21|6.0-3.46-17|6.0-3.48-17|6.5-3.09-16|4.5-3.34-14,11
Buckeye Brewing Company,2002,Ohio,Cleveland,41.455577,-81.754343,721-3|405-4|47-5|825-11|819-11|776-14|680-19|547-21|756-26|795-27|115-31|900-48,6.8-3.56-349|7.9-3.79-313|6.8-3.6-158|--3.37-105|5.0-3.53-68|5.0-3.32-53|7.0-3.78-43|8.0-3.35-31|--3.3-28|6.5-3.32-24,47
Buckledown Brewing,2013,Illinois,Lyons,41.805548,-87.836692,637-4|376-5|706-6|632-8|444-8|815-8|750-9|837-10|2-12|613-12|913-13|453-14|685-15|629-16|175-17|532-17|610-17|438-18|668-18|409-19|818-19|878-21|113-21|489-22|880-22|436-22|915-23|248-26|874-27|168-27|701-27|416-31|347-38|911-41|839-48,7.0-3.6-35|4.5-3.17-20|6.2-3.46-18|8.1-3.44-17|8.1-3.54-11,
Buffalo Bayou Brewing,2012,Texas,Houston,29.775992,-95.416086,158-4|3-7|378-16|291-17|484-18|440-25|336-29|554-37|805-41,10-3.58-72|9.1-3.36-69|5.9-3.21-48|9.0-3.48-37|9.1-3.34-27|11-3.46-27|6.3-3.34-26|9.6-3.33-26|5.8-3.24-21|7.5-3.47-21,3
Buffalo Bills Brewery,1983,California,Hayward,37.673956,-122.081667,351-5|464-6|448-9|160-9|96-9|705-10|834-10|44-11|434-12|449-12|512-14|845-14|285-15|516-16|230-17|272-20|210-20|13-20|488-20|521-21|169-21|219-23|515-24|402-25|867-25|261-25|588-25|264-27|907-28|662-28|369-29|608-31|370-36|222-36|9-39|423-39|675-40|254-42|63-43|555-43|899-44|315-46,6.0-2.89-887|5.2-2.56-576|7.9-2.97-383|6.8-3.01-271|8.0-3.27-65|5.2-2.64-43|7.9-3.72-39|7.5-3.47-24|6.9-3.17-21|9.0-3.5-13,160
Bull and Bones Brewhaus and Grill‎,2009,Virginia,Blacksburg,37.21313,-80.402077,840-3|297-25,5.1-3.06-25|5.3-3.02-22|6.9-3.27-22|5.0-2.99-20|5.2-2.93-19|4.7-2.84-18|5.1-2.55-17,840
Bull & Bush Pub & Brewery,1997,Colorado,Denver,39.669461,-104.934415,21-6|54-6|831-6|267-9|172-11|244-12|769-13|204-14|747-16|240-18|599-20|691-21|278-30|343-35|471-50,7.7-3.38-112|12-3.74-56|6.0-3.24-49|6.0-3.09-36|12.5-3.85-34|12-3.38-33|4.0-2.97-29|4.5-3.28-26|5.0-2.86-25|5.0-3.25-24,21
Bull Falls Brewery,2008,Wisconsin,Wausau,44.951251,-89.618025,,6.0-2.82-26|6.6-3.11-21|6.3-3.13-20|7.6-3.43-18|5.2-3.39-18|5.8-2.76-15|6.0-2.92-13|5.6-3.11-11|5.2-2.97-11,
Buoy Beer Company,2014,Oregon,Astoria,46.184162,-123.834744,,7.5-3.48-35|6.7-3.11-20|6.2-3.11-18,
Bur Oak Brewing Company,2014,Missouri,Columbia,38.886071,-92.450677,234-10|846-31,7.6-3.22-23|4.8-3.42-22|4.8-3.14-14|4.8-3.34-13|5.2-3.04-12,234
Burial Beer Company,2013,North Carolina,Asheville,35.588077,-82.553964,356-1,7.5-3.78-76|7.0-3.59-58|5.0-3.43-45|5.0-3.54-36|4.0-3.55-25|6.8-3.7-24|6.2-3.42-22|10.2-3.66-22|7.0-3.63-21|9.2-3.42-21,356
Burley Oak Brewing Company,2011,Maryland,Berlin,38.333794,-75.216644,,4.4-3.55-42|3.3-3.44-38|8.1-3.35-34|7.7-3.48-34|5.0-3.02-29|6.5-3.51-28|6.5-3.47-22|7.0-3.43-18|5.5-3.5-17|7.5-3.49-14,
Burlington Beer Company,2014,Vermont,Williston,44.447867,-73.127028,869-5,8.0-3.62-34|5.4-3.58-33|5.8-3.43-22|7.3-3.34-15|8.3-3.68-14|6.3-3.42-13|--3.11-11|6.3-3.37-11,
Burnside Brewing Company (OR),2011,Oregon,Portland,45.523075,-122.658678,28-2|318-7|733-10|253-11|144-11|302-16|151-43,4.9-3.17-124|6.6-3.41-115|5.6-3.25-77|8.3-3.38-63|5.4-3.13-39|5.5-3.24-39|10-3.46-33|5.8-3.24-31|5.5-3.41-28|5.0-2.91-24,28
Burnt City Brewing,2012,Illinois,Chicago,41.931713,-87.657102,2-4|706-8|532-8|376-8|444-8|438-8|637-9|818-13|610-14|815-15|632-16|668-17|409-18|837-18|750-21|436-21|489-22|613-23|913-23|874-23|685-24|629-26|453-27|347-27|915-27|175-28|880-28|416-29|248-31|701-31|113-33|878-34|168-40|911-41|293-49,5.3-3.25-32|6.7-3.39-24|8.7-3.43-16|7.0-3.12-16|5.0-3.31-12|5.4-3.27-12|7.0-2.98-11|5.3-3.14-11,2
Burnt Hickory Brewery,2012,Georgia,Kennesaw,34.039394,-84.616194,607-9|686-14|317-14|39-16|294-16|728-17|783-17|559-19|388-20|922-21,9.0-3.45-54|8.0-3.64-48|6.5-3.58-44|7.0-3.57-38|13-3.66-25|8.5-3.41-20|8.0-3.58-20|11-3.41-19|8.0-3.31-19|13.5-3.44-19,
Busted Sandal Brewing,2013,Texas,San Antonio,29.498665,-98.556333,6-3|550-32|678-47,7.1-3.13-19|7.4-3.5-17|6.1-3-15,6
Butcher’s Brewing,2011,California,Santee,32.832437,-116.97948,647-1|281-7|754-12|594-13|7-13|612-14|74-15|569-15|136-15|165-20|345-26|243-29|305-30,5.6-2.57-33|7.0-3.55-25|10-2.99-22|6.8-3.31-18|5.1-3.27-13,647
Butte Creek Brewing Company,1996,California,Ukiah,39.126006,-123.19966,884-47,6.5-3.15-331|6.0-3.2-318|4.5-2.99-145|10.6-3.22-123|6.3-3.17-76|5.5-3.19-76|5.0-2.74-33|6.6-3.16-19,
Butternuts Beer and Ale,2006,New York,Garrattsville,42.379771,-75.307324,799-33|566-48,4.1-2.68-442|5.0-3.07-379|6.8-2.71-357|4.5-2.84-272|10-3.76-134|5.5-3.42-85|9.2-3.62-45|6.0-2.88-32|7.0-3.58-25|--3-23,
Buzzards Bay Brewing,1998,Massachusetts,Westport,41.570741,-71.056744,314-7|348-11|792-23|648-24|393-24|404-25|133-25|472-27|838-28|316-36|889-37|826-40|656-44|319-46,5.0-2.87-50|6.0-3.37-28|8.6-3.28-27|4.8-3.16-24|6.2-3.1-21|6.4-3.05-17|9.0-3.02-14|8.5-3.34-11,
Cahaba Brewing Company,2012,Alabama,Birmingham,33.526543,-86.764508,100-5|375-9,5.2-3.11-18|5.5-3.23-14|7.5-3.39-14|8.5-3.41-12,100
Calapooia Brewing Company,2007,Oregon,Albany,44.638993,-123.093739,713-2|658-9|151-22|154-40|589-40,5.5-3.12-28|6.5-3.5-24|6.5-3.27-22|5.5-3.05-17|9.0-3.47-16|6.8-3.01-12|5.5-2.96-11,713
Caldera Brewing Company,1997,Oregon,Ashland,42.184779,-122.66404,424-13,6.1-3.64-770|5.5-3.41-417|5.6-3.38-309|8.5-3.86-291|6.8-3.43-273|6.0-3.63-250|8.8-3.91-237|6.5-3.44-173|7.4-3.6-152|8.1-3.33-105,
Calfkiller Brewing Company,2010,Tennessee,Sparta,35.944659,-85.42095,,5.7-3.29-23|5.9-3.26-15|6.2-3.34-12|5.8-3.07-12|5.3-3.05-12,
Cambridge Brewing Company,1989,Massachusetts,Framingham,42.27832,-71.416767,631-12|561-12|350-13|263-16|413-18|584-20|857-21|23-21|889-21|316-21|319-21|681-23|128-24|656-24|838-24|890-24|256-27|332-27|472-28|707-29|912-29|648-30|133-31|357-32|792-32|425-32|772-33|404-34|903-35|865-37|563-40|393-40|348-41|247-49,8.0-3.67-240|6.0-3.41-183|9.0-3.6-151|10-3.44-128|5.4-3.34-122|6.0-3.51-118|6.5-3.64-113|9.0-3.78-104|10.5-3.7-99|5.8-3.23-94,
Canal Park Brewing Company,2012,Minnesota,Duluth,46.782771,-92.094018,364-16,9.2-3.46-20|7.0-3.5-20|5.7-3.3-19|7.5-3.03-11,364
Candia Road Brewing Company,2012,New Hampshire,Manchester,42.984043,-71.415426,247-2|357-17|868-18|772-21|563-22|425-23|256-23|912-34|865-36|890-36|631-37|707-38|903-41|584-41|561-42|332-43|857-44|263-44|413-45|681-45|350-45|23-47,7.3-3.44-24|6.4-3.17-18|7.4-3.4-17|9.5-3.09-15|8.2-3.07-15|9.2-3.21-13|10.2-3.34-13,247
Cannon Brewpub,1999,Georgia,Columbus,32.465565,-84.993327,109-1|614-28,4.5-3.23-27|--3.22-26|5.2-2.91-20|--2.88-14|5.5-2.63-11,109
Cannonball Creek Brewing Company,2013,Colorado,Golden,39.76745,-105.236506,172-7|244-11|599-14|204-16|831-17|240-17|278-20|54-20|21-20|747-26|267-26|769-28|343-28|691-34|471-41,7.2-3.68-16|5.0-3.59-14|9.5-3.66-12|7.2-3.27-11,
Canteen Brewhouse (was Il Vicino Pizzeria and Brewery),1994,New Mexico,Albuquerque,35.12002,-106.61803,31-6|328-14,--3.57-144|7.3-3.49-23|5.9-3.38-22|7.2-3.59-19|8.0-3.53-16|6.4-3.51-16|5.0-2.81-14|5.0-3.17-13|7.8-3.52-12|10-3.5-11,31
Cape Ann Brewing Company,2004,Massachusetts,Gloucester,42.611112,-70.66555,903-10|865-11|707-16|332-18|681-23|857-24|563-24|584-25|23-25|425-26|413-27|772-28|263-29|319-31|656-32|350-32|256-33|561-33|357-41|631-42|316-43|247-48,7.0-3.5-301|5.5-3.17-199|5.5-3.05-171|7.0-3.17-88|11-3.59-79|5.0-2.95-76|5.5-2.92-38|7.0-3.05-34|9.0-3.26-26|9.0-3.37-25,
Cape Cod Beer,2006,Massachusetts,Hyannis,41.677965,-70.311844,826-2|314-33|348-42|648-45|316-49|656-49,6.5-3.29-54|5.5-3.28-49|4.9-3.01-23|5.5-3.42-13,
Cape May Brewing Company,2011,New Jersey,Rio Grande,39.001276,-74.913295,577-35,5.5-3.2-37|8.6-3.27-35|6.0-3.1-32|8.3-3.31-31|7.0-3.15-19|9.0-3.34-18|5.0-3.15-15|3.75-3.09-15|7.3-3.29-14|8.4-3.07-14,
Capital Brewery,1984,Wisconsin,Middleton,43.094687,-89.515847,82-5|544-34,8.5-3.68-479|5.1-3.23-352|8.0-3.43-322|5.4-3.32-265|10-3.7-260|6.2-3.35-259|5.4-3.36-236|5.5-3.38-224|--3.01-213|5.0-2.84-192,
Capitol City Brewing Company,1992,Virginia,Arlington,38.841161,-77.086933,164-2|22-6|636-21|525-21|542-22|879-23|782-31|25-40|513-44,6.2-3.22-177|5.6-3.2-168|4.7-2.87-150|5.3-3.27-146|8.5-3.65-98|5.0-2.92-64|--3.16-42|5.6-3.12-28|5.7-3.11-24|4.5-3.07-21,
Captain Lawrence Brewing Company,2006,New York,Elmsford,41.068389,-73.815582,624-4|114-9|406-11|499-11|208-15|833-17|353-20|174-21|367-21|477-22|704-22|498-23|696-25|657-27|73-27|881-27|379-28|0-28|171-29|539-29|850-31|68-31|537-31|202-33|886-38|891-39|712-41|729-44|708-45|661-48,8.0-3.79-714|6.0-4.06-492|10-3.71-452|12-3.88-415|10-3.64-389|--3.99-374|8.0-3.59-359|5.6-3.48-313|6.0-3.5-289|6.5-3.66-234,
Carlyle Brewing Company,2003,Illinois,Rockford,42.269092,-89.090654,163-6|839-29|544-33|911-40|701-46|248-47|880-50|915-50,4.5-3.21-36|5.9-3.53-34|5.0-3.34-25|5.2-3.46-23|5.2-3.02-14|5.3-3.09-13|8.2-3.39-12|4.9-3.11-11,
Carneros Brewing Company,2013,California,Sonoma,38.258876,-122.415864,675-11|222-12|408-16|608-20|254-22|261-22|600-22|139-24|315-27|230-28|210-30|515-32|512-33|13-33|884-34|44-34|434-35|264-37|520-39|272-39|351-40|845-40|448-41|521-42|642-43|705-47|662-47|34-47|285-48|160-48,5.8-3.18-17|5.8-2.92-15|5.5-2.93-15|5.0-2.8-13|5.5-2.85-13|7.5-3.26-11,
Carolina Brewery,2003,North Carolina,Chapel Hill,35.911019,-79.061757,597-6|81-11|870-16|162-18|716-25|42-26|67-41,5.7-3.24-143|5.1-2.81-95|5.4-2.92-52|5.9-3.23-42|5.1-2.92-32|5.6-2.89-24|8.5-3.47-23|5.4-3.45-22|5.9-3.09-22|--3.16-18,597
Carolina Brewing Company,1999,North Carolina,Newport,34.796288,-76.858162,492-37,5.1-2.9-109|4.9-3.32-82|5.2-3.26-68|9.5-3.73-47|9.3-3.5-46|5.2-3.1-44|6.5-3.14-44|5.9-3.21-41|5.6-3.15-19|4.5-2.95-18,
Carson’s Brewery,2013,Indiana,Evansville,38.013751,-87.534418,218-2|616-24,5.0-3.35-66|7.0-3.43-58|5.5-3.33-42|4.0-2.83-38|6.0-3.43-36|6.0-3.05-30|8.3-3.38-21,
Carton Brewing,2011,New Jersey,Atlantic Highlands,40.411799,-74.03844,708-15|537-18|886-19|0-19|202-20|828-20|651-22|73-22|696-23|881-24|729-24|68-24|498-25|704-26|539-26|850-29|477-31|657-31|367-33|833-33|174-35|499-36|373-37|406-37|114-38|624-45,4.2-3.67-242|7.8-3.73-153|12-3.49-92|3.9-3.47-78|6.0-3.41-64|4.0-3.59-57|10.3-3.73-49|6.5-3.42-37|10-3.85-36|8.4-3.52-35,
Cascade Lakes Brewing Co.,1999,Oregon,Redmond,44.268193,-121.175465,397-13,5.0-3.36-97|6.9-3.28-82|5.4-3.18-57|4.2-2.72-53|5.3-2.71-52|6.8-3.31-49|6.4-3.21-41|5.1-3.16-34|6.8-3.22-31|6.4-3.3-28,
Casco Bay Brewing (Shipyard Brewing Co.),1994,Maine,Portland,43.702162,-70.317955,518-4,5.4-3.19-194|7.3-3.28-108|--3.16-66|4.2-3.01-65|5.4-2.94-54|5.0-2.98-48|5.0-3.02-30|--3.07-21|6.8-3.29-18|5.0-3.09-12,518
Casey Brewing and Blending,2014,Colorado,Glenwood Springs,39.515305,-107.3165,,5.5-3.8-133|5.0-3.91-120|5.5-3.8-95|6.5-3.86-90|4.5-3.73-83|5.0-3.83-71|6.0-3.97-69|6.0-3.74-51|5.5-3.8-51|8.0-3.75-48,
Cask & Larder,2012,Florida,Winter Park,28.593279,-81.355953,76-3|872-5|814-9|649-14|533-20|362-22|897-24|832-31|630-43|558-46,4.8-3.58-27|7.4-3.69-23|4.9-3.04-22|2.8-3.29-17|12.5-3.55-14|5.4-3.31-11,
Castle Danger Brewery,2011,Minnesota,Two Harbors,47.025788,-91.674758,364-15,7.0-3.72-31|8.0-3.55-24|7.1-3.7-24|5.8-3.26-21|6.0-3.19-21|5.5-3.12-19|9.1-3.56-19|7.2-3.45-16,
Catawba Brewing Company,1999,North Carolina,Morganton,35.744607,-81.685351,914-21|456-42|732-48,6.0-3.3-154|5.1-3.08-112|6.0-2.86-85|5.2-3.18-63|5.5-3.46-61|5.5-3.32-48|5.7-3.31-42|6.0-3.42-32|5.0-3.24-31|8.0-3.44-30,
Cathedral Square Brewery,2009,Missouri,St. Louis,38.639399,-90.243863,57-3|702-13|860-19|506-19|781-22|666-23|387-28,6.5-3.06-70|7.0-3.02-70|10-3.45-61|4.8-3.14-50|--2.81-44|9.0-3.44-41|10-3.58-36|5.0-2.46-19|8.0-3.39-19,57
Cedar Creek Brewery,2012,Texas,Seven Points,32.321765,-96.248934,177-38|894-40|717-41|93-44|622-44|8-45|797-45|87-47,6.8-3.63-100|5.1-3.32-56|4.5-2.81-50|5.1-3.17-47|8.8-3.43-32|--3.45-31|--3.31-16|6.0-3.12-11,
Cellar Dweller Craft Beers (Valley Vineyards Winery),1970,Ohio,Morrow,39.356734,-84.172658,560-17|766-19|864-20|650-23|64-24|813-25|178-28|893-29|602-44,12.5-3.63-20|5.5-3.13-16|4.9-2.97-15|7.0-3.36-14|5.8-3.05-12|6.0-3.45-12|7.4-3.14-11,
Cellarmaker Brewing Company,2013,California,San Francisco,37.777218,-122.410768,13-0|272-6|434-8|230-8|521-9|44-10|261-12|608-14|351-14|285-15|512-20|448-24|210-24|464-25|675-25|834-27|516-27|845-27|160-28|96-28|402-28|867-28|705-28|222-30|515-31|449-31|169-35|264-36|588-37|488-38|219-39|600-40|254-41|662-42|907-43|315-47|408-47|369-48,10.4-3.93-75|7.2-3.83-63|14.5-3.81-57|6.5-3.75-54|5.1-3.72-50|3.8-3.42-49|8.1-3.73-49|7.8-3.72-45|8.5-3.93-42|4.7-3.43-37,13
Center of the Universe Brewing,2012,Virginia,Ashland,37.708558,-77.446946,98-13,6.8-3.5-80|5.2-3.26-54|5.0-2.9-40|6.5-3.51-30|4.5-3.19-14|7.0-3.33-14|7.0-3.33-14|10.2-3.36-13|10.5-3.41-11,
Central Coast Brewing,2004,California,San Luis Obispo,35.28561,-120.65558,801-8|280-33|843-49,7.2-3.69-38|9.5-3.68-38|4.3-3-37|7.5-3.55-35|5.5-3.23-33|6.0-3.33-31,801
Central Waters Brewing Co.,1997,Wisconsin,Amherst,44.445359,-89.279571,514-45|455-46,9.5-3.91-725|7.5-3.6-546|11.2-3.9-535|8.0-3.82-421|5.5-3.43-385|10-3.66-319|--3.77-291|9.0-3.77-265|5.5-3.34-264|10-3.75-261,
C.H. Evans Brewing Company at the Albany Pump Station,1889,New York,Albany,42.654576,-73.747453,298-12|744-12|524-20|835-28,5.3-3.34-65|5.2-3.29-52|5.0-2.6-37|5.6-3.23-35|3.2-2.59-27|--3.18-23|8.4-3.22-20|8.8-3.19-16|6.8-3.31-16,298
Chama River Brewing Company,2005,New Mexico,Albuquerque,35.137086,-106.603317,31-5|328-14,6.0-3.56-62|9.0-3.66-36|6.2-3.57-29|6.2-3.47-29|5.5-2.92-22|10.5-3.68-22|5.0-3.03-21|5.0-3.04-20|8.5-3.56-19|8.1-3.46-18,31
Champion Brewing Company,2012,Virginia,Charlottesville,38.027643,-78.4783,830-0|718-35,7.0-3.33-84|5.0-2.99-59|6.0-3.57-57|7.0-3.5-55|3.0-3.19-42|4.5-3.12-39|8.5-3.35-29|8.0-3.61-22|10-3.65-19|5.0-3-17,830
Chandeleur Brewing,2015,Mississippi,Gulfport,30.368331,-89.095309,475-1|824-13,5.8-3.35-24|6.5-3.35-21|5.3-2.99-15,475
Chaos Mountain Brewing,2014,Virginia,Callaway,37.095562,-80.051442,297-13|840-24,6.0-3.25-22|7.5-3.29-21|6.7-3.15-18|5.3-3.16-13,
Charleville Vineyard & Microbrewery,2007,Missouri,Sainte Genevieve,37.75348,-90.149183,,10.5-3.64-132|6.5-3.22-115|4.5-2.97-84|--3.03-67|9.0-3.4-53|9.0-3.51-42|5.4-3.16-38|10.5-3.55-25|10.5-3.61-24|7.2-2.91-22,
Charlie & Jakes Brewery & BBQ,2003,Florida,Melbourne,28.214582,-80.674028,427-10|269-13|832-26|897-38|533-46|76-48,6.6-2.84-30|6.9-3.1-29|6.3-2.74-24|6.0-2.97-22|6.0-2.99-19|4.3-2.88-15,427
Chatham Brewing,2007,New York,Chatham,42.362842,-73.596218,835-19|744-24|298-26|524-40|885-45,6.0-3.49-23|8.0-3.28-20|5.0-3.27-11,
Chattanooga Brewing Company,2010,Tennessee,Chattanooga,35.036408,-85.314321,135-6|862-26,5.5-2.89-41|6.0-3.29-24|6.1-3.23-21|--3.3-15,135
Cheboygan Brewing Company,2011,Michigan,Cheboygan,45.646008,-84.475734,,5.25-3.13-47|5.7-3.3-25|4.0-2.85-19|5.7-3.26-11|6.8-2.93-11,
Chelsea Craft Brewing Company,1999,New York,New York,40.841897,-73.901718,499-6|704-7|114-7|498-8|406-8|833-8|696-10|477-12|73-12|0-12|367-13|881-13|624-15|174-15|537-16|539-17|657-18|68-18|202-19|850-21|886-24|208-24|708-30|353-31|729-31|651-38|828-39|171-43|379-43,6.3-3.25-111|5.0-2.73-95|7.3-3.69-91|5.0-3.08-65|9.0-3.65-58|6.6-3.29-57|5.25-2.77-39|9.5-3.05-39|6.4-3.54-38|8.4-3.46-36,
Cherry Street Brewing Cooperative,2013,Georgia,Cumming,34.182731,-84.218526,559-7|388-10|317-12|922-15|783-18|294-20|728-24|607-27|686-27|39-28,6.0-3.63-21|4.8-3.12-16|6.4-3.46-15|6.8-3.4-15,
Chicago Brewing Company,2000,Nevada,Las Vegas,36.14871,-115.297195,95-11|29-11|70-24,6.2-3.46-76|4.6-2.92-64|4.5-2.91-58|4.6-3.08-51|4.6-2.69-46|4.5-3.18-42|4.6-2.92-35|5.2-2.99-21|8.5-2.91-16|13-3-13,29
ChopHouse & Brewery D.C. (owned by Rock Bottom),2003,Washington DC,Washington,38.896519,-77.021632,22-1|164-6|636-16|525-19|542-20|879-27|782-33|25-35|513-41,6.3-3.43-79|6.3-3.36-72|5.2-3.16-71|5.4-3.07-59|4.1-2.64-52|6.8-3.25-41|4.8-3.18-39|5.5-3.01-22|8.5-3.04-21|6.7-3.18-12,
ChopHouse & Brewery Denver (owned by Rock Bottom),2000,Colorado,Denver,39.754964,-104.997431,244-6|172-6|54-7|21-8|204-8|831-11|599-13|747-14|267-15|769-20|240-20|278-23|691-27|343-29|471-43|307-47,6.0-3.08-75|5.5-2.92-60|5.54-3.01-55|6.6-3.43-49|4.0-3.01-41|--2.82-34|4.45-2.59-29|--3.05-23|--3.29-11,21
Christian Moerlein Brewing Company,1853,Ohio,Cincinnati,39.113401,-84.515294,64-4|893-4|864-15|560-22|766-30|650-44|178-46|813-48,5.5-2.17-327|6.0-3.35-158|5.2-3.18-112|7.0-3.27-108|5.2-2.8-95|6.95-3.22-75|6.3-3.27-70|4.7-3-70|5.4-3.1-39|8.9-3.45-34,64
Chuckanut Brewery and Kitchen,2008,Washington,Bellingham,48.753103,-122.484092,389-1,5.0-3.43-65|5.0-3.37-50|5.0-3.26-35|5.5-3.26-31|5.5-3.35-29|5.5-3.32-23|5.0-3.12-21|5.5-3.36-14|5.8-3.39-13|5.0-3.32-12,389
Church Brew Works,1996,Pennsylvania,Pittsburgh,40.461909,-79.965097,61-1,4.3-3.07-188|4.3-3.16-186|7.0-3.38-171|4.1-2.83-149|10.3-3.4-123|9.0-3.42-107|4.8-3.52-69|4.1-3.02-39|5.2-2.94-38|4.7-3.37-37,61
Church Street Brewing Company,2012,Illinois,Itasca,41.970641,-87.993639,815-6|837-7|668-7|610-8|489-9|685-9|436-10|915-10|913-10|880-11|818-11|706-12|750-12|637-13|248-13|701-14|532-14|874-15|376-15|438-16|175-17|453-19|444-19|113-20|2-20|632-22|878-25|613-25|911-27|629-29|347-31|409-31|168-33|839-39|416-44|293-46,6.8-3.12-39|5.1-2.86-36|5.4-3.16-34|6.0-3.07-19|6.2-3.23-19|5.3-3.22-18|4.8-3.11-18|11-3.61-16|9.25-3.16-12|11.2-3.52-12,
CIB Brewery,2012,Iowa,Carson,41.236285,-95.421624,564-24|684-26|41-39,8.0-1.83-50|7.2-2.48-47|9.0-2.34-47|7.0-2.26-37|7.2-2.49-36|10-2.06-30|--2.43-27|7.2-2.53-21|--2.18-18,
Cinder Block Brewing,2012,Missouri,Kansas City,39.140403,-94.579393,36-3|167-4|226-9|131-9|322-15|734-15|688-17|540-18|192-21|337-35|428-45,7.2-3.37-16|4.8-3.22-16|5.0-3.33-15|5.6-3.38-13|5.5-3.11-13,36
Circle Brewing Company,2011,Texas,Austin,30.390185,-97.716996,10-5|682-8|250-9|574-10|665-21|678-33,4.6-3.2-33|4.8-3.12-25|4.7-3.31-18|4.7-3.23-13|4.8-3.23-11,10
Cisco Brewers & Nantucket Vineyard,1996,Massachusetts,Nantucket,41.258688,-70.007142,826-34,5.6-3.06-488|4.5-3.08-307|7.0-3.57-291|6.5-3.37-260|8.0-3.4-235|5.5-3.35-207|5.0-3.78-203|6.88-3.02-202|7.5-3.37-189|6.7-3.81-161,
Cismontane Brewing,2009,California,Rancho Santa Margarita,33.636109,-117.610913,407-5|740-8|538-9|355-9|510-9|181-9|116-9|308-9|84-12|419-14|627-14|536-15|56-16|262-16|238-18|465-20|639-20|134-21|703-22|401-22|757-22|659-23|330-23|183-23|55-24|299-25|383-25|892-26|433-26|761-28|111-28|58-28|568-29|385-29|161-29|645-29|749-31|266-33|910-33|426-35|689-35|441-35|260-35|283-35|359-36|35-36|311-36|773-36|722-36|760-36|546-37|663-37|485-37|305-37|432-37|99-37|394-37|243-38|548-38|779-39|324-39|233-39|470-39|300-40|671-40|237-41|398-41|182-41|861-41|674-41|345-41|611-42|625-42|576-42|170-42|909-43|918-43|592-43|371-43|1-43|363-47|503-47|697-47|165-48|241-48,8.5-3.62-174|7.2-3.41-133|6.0-3.14-81|4.4-3.24-62|6.0-3.39-51|4.5-3.33-39|10-3.69-38|11.5-3.57-37|12-3.8-37|4.5-3.24-21,757
City Steam Brewery,2001,Connecticut,Hartford,41.768057,-72.672923,211-1|460-9|582-15|790-15|585-17|653-27|885-27|157-28|919-30|252-31|194-31|916-35|661-37|891-39|712-43|171-48|379-49,5.0-3.06-80|7.2-3.21-43|6.0-3.35-37|5.0-3.06-22|8.0-3.21-21|5.5-3.16-21|5.5-3.15-20|6.0-2.68-20|4.8-3.01-16|4.0-2.54-15,211
Civil Society Brewing Co.,2015,Florida,Jupiter,26.889501,-80.115704,618-3|279-9|727-20|587-22|473-26|543-30|141-34|344-35|421-40|207-44|853-44|655-45|275-45|863-48|552-49|848-50,6.2-3.71-30|6.3-3.6-22|5.5-3.78-16|4.9-3.66-13|5.0-3.51-12|8.0-3.73-11,618
Climax Brewing Company,2001,New Jersey,Roselle Park,40.661156,-74.282778,886-3|202-5|68-6|729-8|539-9|537-9|708-10|881-10|73-12|0-14|696-14|651-15|477-16|498-16|704-16|367-17|828-17|174-18|833-20|499-29|114-29|406-31|373-35|657-36|850-37|624-37|208-48,6.0-3.05-109|5.5-3.07-89|10-3.33-80|4.6-3.04-59|5.2-2.99-57|6.2-3.27-41|8.0-2.96-38|--2.93-36|8.0-3.19-22|9.0-2.94-19,
Coachella Valley Brewing,2013,California,Sun City,33.77333,-117.144317,383-8|111-9|465-10|394-13|909-15|627-16|485-17|262-19|58-20|697-22|689-23|99-24|674-25|299-27|283-27|401-31|659-32|407-33|84-35|308-35|803-36|536-36|740-36|355-37|116-37|181-37|538-37|510-37|433-38|441-39|419-39|692-39|161-40|305-40|757-41|56-41|703-41|345-42|645-42|760-44|183-44|892-44|238-45|243-45|134-45|731-46|165-47|639-47|55-47|722-47|311-47|568-48|910-49|330-49|773-49|260-50,7.2-3.51-31|7.0-3.13-25|4.5-3.37-21,
Coalition Brewing,2010,Oregon,Portland,45.522291,-122.638236,28-3|318-8|253-10|733-11|144-12|302-17|151-43,5.48-3.18-28|6.1-3.19-28|7.0-3.41-25|5.75-3.25-24|5.5-3.11-15|4.4-2.9-12,28
COAST Brewing Company,2007,South Carolina,Moncks Corner,33.185657,-79.985721,806-15|276-23|445-25|199-28,7.7-3.58-213|9.3-3.72-174|4.8-3.27-115|9.7-3.88-93|9.3-3.92-81|9.3-3.9-61|6.0-3.42-36|6.3-3.37-31|11-3.74-29|6.2-3.66-28,
Coastal Empire Beer Co.,2011,Georgia,Savannah,32.051028,-81.12382,179-3,6.2-3.28-48|4.7-3.07-34|4.0-3.38-23|5.2-3.19-21|10-3.35-15|6.8-3.16-12,179
Coastal Extreme Brewing Company,1999,Rhode Island,Newport,41.512437,-71.317659,393-16|348-18|404-20|314-21|792-21|133-22|472-25|648-29|838-29|889-34|916-39|316-41,5.2-2.9-226|5.6-3.19-123|4.5-2.9-94|5.0-3.15-92|6.5-3.23-82|5.5-3.01-66|8.6-2.94-27|4.5-3.15-26|7.0-2.59-23|6.1-3.42-18,
Cocoa Beach Brewing Company,2009,Florida,Cocoa Beach,28.321331,-80.609168,427-17|269-20|832-22|897-42|76-49|533-50,6.0-3.26-65|6.6-3.24-62|8.0-3.21-30|5.5-3.3-13,
Coddington Brewing Company,1995,Rhode Island,Middletown,41.519563,-71.309867,393-15|348-17|404-20|314-20|792-20|133-22|472-25|648-29|838-29|889-34|916-40|316-41,5.0-3.24-42|4.2-2.9-37|4.3-2.68-34|3.5-3.09-27|4.7-3.15-19|4.3-2.95-13|3.8-3.19-11,
College Street Brewhouse & Pub,2012,Arizona,Lake Havasu City,34.507487,-114.345594,694-2,5.8-3.06-41|6.66-3.35-28|8.0-3.07-26|5.1-2.88-19|8.1-3.39-15,694
Columbia River Brewing Company,2010,Oregon,Portland,45.535439,-122.621803,28-4|318-9|253-9|144-11|733-12|302-18|151-45,7.3-3.41-33|8.5-3.37-32|6.5-3.45-19|8.5-3.46-12|6.7-3.1-11,28
Columbus Brewing Company,2001,Ohio,Columbus,39.969531,-83.066038,14-9|841-10|780-38|602-40,6.0-3.69-249|8.5-3.94-148|5.3-3.34-148|5.6-3.08-67|5.0-3.1-52|6.8-3.11-51|--3.36-45|10-3.83-35|6.0-3.4-35|8.5-3.69-19,14
Community Beer Company,2013,Texas,Dallas,32.793115,-96.814872,8-2|93-3|177-11|126-11|206-13|274-13|717-14|87-15|917-15|797-17|739-18|622-18|690-19|69-19|770-19|508-21|827-22|49-22|327-24|495-24|894-24|185-25|580-25|842-26|166-27|16-28|859-29|902-33|286-34|216-35,8.6-3.69-126|11.6-3.9-62|5.5-3.28-55|10-3.6-49|5.2-3.45-48|9.6-3.51-41|5.2-3.26-33|6.9-3.71-32|9.0-3.47-28|4.5-3.29-24,8
Community Beer Works,2012,New York,Buffalo,42.919905,-78.897935,72-2|753-14,4.6-3.57-38|6.2-3.74-35|5.9-3.61-33|5.4-3.34-18|5.6-3.1-17|5.4-3.36-16|9.5-3.47-15|5.8-3.43-12,72
Comrade Brewing Company,2014,Colorado,Denver,39.675021,-104.897796,21-4|54-5|267-7|831-8|172-13|244-13|769-13|204-14|747-15|599-20|240-20|691-21|278-30|343-36|471-50,7.9-3.75-40|4.9-3.55-20|6.0-3.21-14|5.0-3.06-12|5.0-3.07-11|6.9-3.68-11,21
Confluence Brewing Company,2012,Iowa,Des Moines,41.569174,-93.630465,573-4|875-8|103-8|714-8|567-32,6.9-3.55-74|6.8-3.58-61|5.2-3.46-32|5.6-3.06-30|5.8-3.1-29|6.0-3.36-22|4.8-3.04-18|5.8-3.29-16|8.3-3.25-15|7.5-3.37-15,103
Conquest Brewing Company,2013,South Carolina,Columbia,33.970823,-81.023731,191-1|887-39,8.0-3.3-17|7.2-3.44-17|4.2-3.2-11|5.2-3.23-11,191
Conshohocken Brewing Co.,2014,Pennsylvania,Conshohocken,40.073658,-75.293764,4-11|429-27|469-27|373-34|443-36|223-38|352-39|577-43,6.4-3.4-25|4.8-3.44-22|5.9-3.09-20|6.4-3.21-16|7.4-3.42-15|8.9-3.43-15|7.0-3.44-14|6.2-3.3-12,
Cool Springs Brewing Company,2009,Tennessee,Franklin,35.941746,-86.829998,923-6|493-8|24-16|854-17|227-28|679-31|180-49,--3.38-32|--2.99-23|--3.16-21|8.2-3.31-15|9.5-3.32-12|--3.17-11|6.2-3.39-11,493
COOP Ale Works,2009,Oklahoma,Oklahoma City,35.41858,-97.657327,26-7|617-7|638-13|224-19|358-20,6.8-3.66-134|10-3.55-94|6.1-3.35-82|9.0-3.72-80|5.3-2.76-54|5.2-3.44-43|9.5-3.3-35|5.6-3.24-33|8.25-3.65-25|13-3.4-19,26
Cooperage Brewing Company,2015,California,Santa Rosa,38.474731,-122.73686,139-3|884-14|600-15|675-26|408-27|222-34|608-37|254-41|261-41|315-45|642-48|230-49,7.2-3.55-21|9.3-3.73-21|7.7-3.54-17|4.5-3.53-17|9.3-3.23-16|7.8-3.48-16|5.1-3.09-15|6.6-3.37-15|8.2-3.33-13,139
CooperSmiths Pub & Brewing,1989,Colorado,Fort Collins,40.647612,-105.029257,159-6|471-21|307-26|343-34|278-42|599-50,7.2-3.41-59|5.4-3.1-57|6.2-3.31-52|5.0-3.31-43|5.3-2.98-39|7.4-3.75-35|4.8-2.87-35|5.3-2.75-34|5.3-3.03-27|7.4-3.52-24,159
Cooperstown Brewing Co.,1995,New York,Milford,42.58986,-74.940384,566-37|524-48|298-49,6.3-3.31-176|6.1-3.16-168|7.7-3.38-147|4.6-3.23-140|5.5-2.97-136|4.3-2.85-104|6.7-3.45-98|6.0-2.91-75|--3.13-44|6.0-3.14-43,
Copper Kettle Brewing (CO),2011,Colorado,Denver,39.695175,-104.891929,21-3|54-3|267-8|831-9|244-12|172-12|204-13|747-14|769-14|599-19|240-21|691-22|278-29|343-34|471-49|307-49,7.0-3.51-93|4.8-3.18-31|13.3-3.84-24|8.4-3.42-17|7.6-3.14-15|4.8-3.32-15|6.0-3.23-14|8.0-3.29-13|10.7-3.41-12|5.4-3.07-12,21
Coppertail Brewing,2014,Florida,Tampa,27.956333,-82.430026,52-10|77-18|743-19|251-22|417-23|288-33|710-38|687-43,6.2-3.56-75|5.9-3.55-74|9.0-3.52-66|5.0-3.09-41|8.5-3.62-41|3.5-3.43-24|10-3.7-23|11-3.7-23|--3.46-20|3.5-3.71-19,52
Corcoran Brewing Company,2011,Virginia,Purcellville,39.143578,-77.712766,782-9|542-27|525-28|513-29|879-30|905-31|22-41|164-42,7.2-3.22-18|9.2-3.39-17|9.0-3.28-15|5.4-3.23-13|4.7-3.17-13|5.25-2.93-13|6.0-3.26-11|6.0-3.07-11|6.6-3.08-11,
Core Brewing and Distilling,2011,Arkansas,Springdale,36.206537,-94.135093,442-6|920-11|590-12|410-16,5.6-3.32-29|5.0-2.98-23|5.0-3.1-18|5.9-3.46-18|9.5-3.31-17|6.3-3.19-16|6.0-3.14-16,442
Cornerstone Brewing Company,2004,Ohio,Berea,41.366804,-81.852962,825-4|405-7|721-8|47-13|680-13|547-17|819-19|776-22|756-25|115-28|795-35|462-48,7.5-3.28-33|4.8-3.25-18|5.2-2.67-18|6.5-3.02-17|5.5-2.82-17,
Coronado Brewing Company,1996,California,Coronado,32.697759,-117.173437,7-2|594-5|612-10|647-14|281-18|754-22|165-28|74-29|569-29|136-29|243-32|345-33|305-35,8.5-3.72-930|7.0-3.58-893|5.7-3.31-428|5.2-3.06-385|5.4-3.47-320|9.0-3.73-251|8.5-3.67-235|8.0-3.55-224|7.5-3.63-217|8.5-3.63-176,
"Cortland Beer Company, LLC",2011,New York,Cortland,42.599466,-76.180114,176-29|799-33,6.8-3.31-30|10-3.52-25|7.0-3.19-21|8.0-3.28-20|10-3.32-20|6.0-3.27-17|5.9-3.07-15,
Cottrell Brewing Company,1996,Connecticut,Pawcatuck,41.370677,-71.834249,916-16|393-29|404-36|133-38|792-39|472-42|790-44|348-44|889-45|838-48|314-49,5.0-3.12-204|6.0-3.2-125|5.5-2.93-94|8.5-3.34-46|8.0-3.58-40|5.0-3.13-30|5.5-3.49-25|8.5-3.5-19|5.5-3.35-16|6.5-3.17-12,
Council Brewing Company,2014,California,San Diego,32.834264,-117.154779,612-4|7-8|647-9|594-12|754-13|281-16|165-19|74-22|569-22|136-22|345-23|243-23|305-26|536-48,4.5-3.54-60|4.5-3.65-51|4.5-3.71-48|4.5-3.67-45|4.5-3.53-31|4.5-3.41-28|4.5-3.55-27|4.5-3.61-25|7.1-3.33-22|4.5-3.58-20,7
Country Boy Brewing,2012,Kentucky,Lexington,38.043769,-84.508763,60-3,4.9-2.95-63|6.5-3.37-48|6.5-3.55-47|5.0-3.27-38|4.0-3.29-37|9.0-3.58-29|6.5-3.41-28|6.5-3.41-27|4.5-3.38-24|7.0-3.38-19,
Court Avenue Brewing Company,1996,Iowa,Des Moines,41.585424,-93.620545,573-5|103-7|714-7|875-8|567-31,4.6-3.22-26|4.3-3.34-22|4.9-3.14-21|--3.21-17|3.2-2.75-17|4.1-3.05-16|--3.06-15|4.9-2.92-11,103
Covington Brewhouse,2005,Louisiana,Covington,30.477732,-90.097101,511-35|50-36,5.0-2.69-44|--2.88-40|4.5-2.77-38|--2.85-33|6.0-2.6-33|4.2-2.36-32|6.2-3.18-26|--2.6-21|5.0-2.85-19|--2.54-18,
Crabtree Brewing Company,2006,Colorado,Greeley,40.388739,-104.727402,307-2|471-24|343-25|159-25|278-34|747-36|599-37|204-38|244-42|54-45|21-46|172-49,4.3-3.49-107|6.5-2.78-55|7.5-3.12-38|5.28-2.74-36|7.7-3.3-33|--2.76-31|9.0-3.27-31|5.0-3.06-30|5.0-2.83-26|12-3.46-22,307
Craftsman Brewing Co.,2000,California,Pasadena,34.167767,-118.158987,918-5|371-6|120-7|625-8|273-8|576-8|671-8|233-9|548-11|432-13|359-13|546-13|611-13|779-14|1-14|260-14|773-15|910-16|155-17|470-17|311-17|722-18|241-19|663-19|266-19|426-19|568-20|866-21|363-21|300-21|592-21|749-21|325-22|645-22|892-23|385-23|760-23|170-24|161-25|183-25|324-25|761-25|35-25|55-25|433-26|757-26|703-26|503-27|132-27|182-28|237-28|861-28|398-28|441-29|134-29|330-30|659-32|401-33|56-34|639-34|419-36|238-37|84-37|152-38|299-38|308-40|181-43|510-43|538-43|355-43|116-43|283-45|407-45|58-47|740-48|217-48|689-49|99-50,5.4-3.58-68|5.6-3.31-62|9.0-3.73-60|8.0-3.56-49|8.4-3.7-44|5.0-3.51-39|5.0-3.3-37|8.2-3.61-36|--3.11-27|6.1-3.6-27,182
CraftWorks Restaurants & Breweries -Rock Bottom Corporate Office,2001,Tennessee,Chattanooga,35.035523,-85.305304,135-6|862-26,4.4-2.24-135|5.3-3.04-133|--3.16-112|5.5-3.14-98|5.7-2.99-98|6.5-3.4-92|5.6-2.95-79|5.5-2.88-75|6.6-3.28-74|--2.99-57,135
Crane Brewing Company,2015,Missouri,Kansas City,39.00673,-94.463376,688-6|322-7|226-8|36-10|131-11|167-11|734-15|192-21|540-22|337-40,4.1-3.43-26|4.1-3.67-23|4.5-3.66-17|6.8-3.52-17|6.8-3.39-16|4.5-3.64-13|4.1-3.53-11,36
Cranker’s Brewery,2012,Michigan,Big Rapids,43.695843,-85.484028,122-50,6.6-3.42-55|6.1-3.46-47|5.1-2.89-16,
Crazy Mountain Brewing Company,2010,Colorado,Edwards,39.649032,-106.587723,,5.7-3.02-304|4.3-3.93-256|5.9-3.32-191|5.2-2.84-160|5.2-3.01-145|6.7-3.22-109|10-3.38-83|13-3.83-82|6.5-3.82-82|4.6-3.51-73,
Creature Comforts Brewing Company,2014,Georgia,Athens,33.959119,-83.379946,221-3|922-50,6.5-3.87-148|4.5-3.63-88|6.8-3.78-38|5.5-3.4-31|6.8-3.69-29|5.5-3.57-26|4.8-3.63-23|8.3-3.83-20|13-3.85-14|4.2-3.28-13,
Cricket Hill Brewing Co.,2002,New Jersey,Fairfield,40.872233,-74.295383,174-7|367-8|539-8|477-9|68-10|881-12|833-13|73-15|202-15|704-16|498-16|696-16|537-17|886-17|729-19|0-19|114-23|499-24|708-24|406-27|651-28|624-30|828-31|657-38|850-40|208-42|373-46|353-48,6.0-2.94-276|4.0-2.7-189|5.0-3.11-174|5.5-3.22-162|6.0-3.48-149|5.0-3.02-105|4.75-3.32-87|4.75-3.41-80|5.1-3.16-76|8.5-3.2-52,
Crooked Can Brewing Company,2015,Florida,Winter Garden,28.563924,-81.590783,814-8|76-13|872-15|533-20|649-24|897-29|362-31|288-41|832-45,7.0-3.38-29|6.0-3.23-21|--3.76-11|7.6-3.52-11,
Crooked Fence Brewing Company,2012,Idaho,Garden City,43.644331,-116.270193,97-3|380-9|360-17|762-19,5.5-3.47-40|9.5-3.48-39|5.5-3.12-31|6.2-3.31-25|9.5-3.46-21|7.0-3.44-18|4.9-3.02-17|7.5-3.35-16|7.0-2.68-16|6.5-3.02-12,
Crooked Stave,2011,Colorado,Denver,39.768811,-104.981001,244-5|54-7|204-7|21-7|172-7|831-12|599-12|747-13|267-15|769-21|240-21|278-23|691-28|343-28|471-42|307-45,4.2-3.78-585|6.2-3.81-565|6.7-3.83-393|6.5-3.87-269|6.2-3.91-247|5.5-3.81-234|7.2-3.66-233|5.0-3.82-212|4.2-3.67-210|9.67-3.89-191,21
Cross Plains Beer Company,2001,Wisconsin,Cross Plains,43.114177,-89.652983,82-12|544-40,5.2-2.65-52|5.0-2.51-38|5.2-2.93-13,
Crossroads Brewing Company,2011,New York,Athens,42.260379,-73.809695,298-26|835-32|744-34|524-42,7.0-3.68-36|7.0-3.27-20|7.3-3.58-17|5.0-3.12-13|5.0-3.2-12|9.0-3.17-11,
Crow Peak Brewing Company,2007,South Dakota,Spearfish,44.517788,-103.868968,478-42,6.9-3.34-160|6.5-3.13-157|5.0-2.52-57|6.0-3.13-14|6.6-3.21-14,
Crown Brewing,2008,Indiana,Crown Point,41.416523,-87.363343,416-12|409-20|629-24|613-28|632-29|444-32|2-35|376-36|637-37|706-40|453-42|750-43|168-43|815-44|878-44|837-46|532-47|438-47|175-47|913-48|685-50,6.4-3.49-35|4.1-2.87-16|6.1-3.37-15|4.1-3.13-11,
Crown Valley Brewing & Distilling,2009,Missouri,Sainte Genevieve,37.926607,-90.110046,860-38|57-49,6.9-3.11-113|10.6-3.64-89|9.0-3.34-84|6.5-3.06-70|7.0-3.02-70|5.6-2.9-67|10-3.45-61|5.5-2.97-56|5.6-3.07-51|4.8-3.14-50,
Crux Fermentation Project,2012,Oregon,Bend,44.042689,-121.305945,397-5,11.5-3.89-147|9.5-3.79-142|7.6-3.63-132|10.5-3.63-79|4.5-3.36-56|11-3.46-56|5.2-3.43-47|6.6-3.37-47|7.0-3.65-44|6.2-3.55-33,397
Culture Brewing Company,2013,California,Solana Beach,32.991557,-117.270781,243-11|612-11|165-13|754-14|345-14|305-14|647-19|7-19|594-25|136-25|74-25|569-25|281-27|536-36|262-39|627-46|383-46|740-48|394-50,6.6-3.54-19|5.2-3.41-16|8.2-3.55-15|5.8-3.38-13|5.2-3.24-11|4.4-3.12-11,
Cumberland Brews (US),2000,Kentucky,Louisville,38.230924,-85.705766,808-7|27-14,5.8-3.51-53|5.9-3.42-39|--2.99-28|5.5-3.22-27|7.0-3.13-20|7.5-3.25-16|--3.28-13|4.6-3.27-12|6.2-3.32-12,
